$PTTKT,STAT,0,0,0,0,0*6D
$GPGGA,020237.000,5212.8408,N,00006.0334,E,1,08,1.1,18.3,M,47.0,M,,0000*6B$GPGSA,A,3,30,18,22,16,21,03,19,07,,,,,1.9,1.1,1.6*3F$GPRMC,020237.000,A,5212.8408,N,00006.0334,E,0.00,,090411,,,A*7B$PTTKT,STAT,0,0,0,0,0*6D
$GPGGA,020238.000,5212.8408,N,00006.0334,E,1,08,1.1,18.3,M,47.0,M,,0000*64$GPGSA,A,3,30,18,22,16,21,03,19,07,,,,,1.9,1.1,1.6*3F$GPRMC,020238.000,A,5212.8408,N,00006.0334,E,0.00,,090411,,,A*74$GPGGA,020239.000,5212.8408,N,00006.0334,E,1,08,1.1,18.3,M,47.0,M,,0000*65$GPGSA,A,3,30,18,22,16,21,03,19,07,,,,,1.9,1.1,1.6*3F$GPRMC,020239.000,A,5212.8408,N,00006.0334,E,0.00,,090411,,,A*75$PTTKT,STAT,0,0,0,0,0*6D
$GPGGA,020240.000,5212.8408,N,00006.0334,E,1,08,1.1,18.3,M,47.0,M,,0000*6B$GPGSA,A,3,30,18,22,16,21,03,19,07,,,,,1.9,1.1,1.6*3F$GPRMC,020240.000,A,5212.8408,N,00006.0334,E,0.00,,090411,,,A*7B$PTTKT,STAT,0,0,0,0,0*6D
$GPGGA,020241.000,5212.8408,N,00006.0334,E,1,08,1.1,18.3,M,47.0,M,,0000*6A$GPGSA,A,3,30,18,22,16,21,03,19,07,,,,,1.9,1.1,1.6*3F$GPGSV,3,1,11,06,71,281,,16,70,201,41,03,56,281,29,30,49,170,49*73$GPGSV,3,2,11,21,48,065,33,18,34,118,46,19,25,273,34,22,19,151,43*74$GPGSV,3,3,11,07,16,324,25,26,02,032,20,08,00,347,*46$GPRMC,020241.000,A,5212.8408,N,00006.0334,E,0.00,,090411,,,A*7A$PTTKT,STAT,0,0,0,0,0*6D
$GPGGA,020242.000,5212.8408,N,00006.0334,E,1,08,1.1,18.3,M,47.0,M,,0000*69$GPGSA,A,3,30,18,22,16,21,03,19,07,,,,,1.9,1.1,1.6*3F$GPRMC,020242.000,A,5212.8408,N,00006.0334,E,0.00,,090411,,,A*79$PTTKT,STAT,0,0,0,0,0*6D
$GPGGA,020243.000,5212.8408,N,00006.0334,E,1,08,1.1,18.3,M,47.0,M,,0000*68$GPGSA,A,3,30,18,22,16,21,03,19,07,,,,,1.9,1.1,1.6*3F$GPRMC,020243.000,A,5212.8408,N,00006.0334,E,0.00,,090411,,,A*78$PTTKT,STAT,0,0,0,0,0*6D
$GPGGA,020244.000,5212.8408,N,00006.0334,E,1,08,1.1,18.3,M,47.0,M,,0000*6F$GPGSA,A,3,30,18,22,16,21,03,19,07,,,,,1.9,1.1,1.6*3F$GPRMC,020244.000,A,5212.8408,N,00006.0334,E,0.00,,090411,,,A*7F$PTTKT,STAT,0,0,0,0,0*6D
$GPGGA,020245.000,5212.8408,N,00006.0334,E,1,08,1.1,18.3,M,47.0,M,,0000*6E$GPGSA,A,3,30,18,22,16,21,03,19,07,,,,,1.9,1.1,1.6*3F$GPRMC,020245.000,A,5212.8408,N,00006.0334,E,0.00,,090411,,,A*7E$GPGGA,020246.000,5212.8408,N,00006.0334,E,1,08,1.1,18.3,M,47.0,M,,0000*6D$GPGSA,A,3,30,18,22,16,21,03,19,07,,,,,1.9,1.1,1.6*3F$GPGSV,3,1,11,06,71,281,,16,70,201,41,03,56,281,29,30,49,170,49*73$GPGSV,3,2,11,21,48,065,35,18,34,118,46,19,25,273,34,22,19,151,43*72$GPGSV,3,3,11,07,16,324,24,26,02,032,19,08,00,347,*4D$GPRMC,020246.000,A,5212.8408,N,00006.0334,E,0.00,,090411,,,A*7D$PTTKT,STAT,0,0,0,0,0*6D
$GPGGA,020247.000,5212.8408,N,00006.0334,E,1,08,1.1,18.3,M,47.0,M,,0000*6C$GPGSA,A,3,30,18,22,16,21,03,19,07,,,,,1.9,1.1,1.6*3F$GPRMC,020247.000,A,5212.8408,N,00006.0334,E,0.00,,090411,,,A*7C$PTTKT,STAT,0,0,0,0,0*6D
$GPGGA,020248.000,5212.8408,N,00006.0334,E,1,08,1.1,18.3,M,47.0,M,,0000*63$GPGSA,A,3,30,18,22,16,21,03,19,07,,,,,1.9,1.1,1.6*3F$GPRMC,020248.000,A,5212.8408,N,00006.0334,E,0.00,,090411,,,A*73$PTTKT,STAT,0,0,0,0,0*6D
$GPGGA,020249.000,5212.8408,N,00006.0334,E,1,08,1.1,18.3,M,47.0,M,,0000*62$GPGSA,A,3,30,18,22,16,21,03,19,07,,,,,1.9,1.1,1.6*3F$GPRMC,020249.000,A,5212.8408,N,00006.0334,E,0.00,,090411,,,A*72$PTTKT,STAT,0,0,0,0,0*6D
$GPGGA,020250.000,5212.8408,N,00006.0334,E,1,08,1.1,18.3,M,47.0,M,,0000*6A$GPGSA,A,3,30,18,22,16,21,03,19,07,,,,,1.9,1.1,1.6*3F$GPRMC,020250.000,A,5212.8408,N,00006.0334,E,0.00,,090411,,,A*7A$PTTKT,STAT,0,0,0,0,0*6D
$GPGGA,020251.000,5212.8408,N,00006.0334,E,1,08,1.1,18.3,M,47.0,M,,0000*6B$GPGSA,A,3,30,18,22,16,21,03,19,07,,,,,1.9,1.1,1.6*3F$GPGSV,3,1,11,06,71,281,,16,70,201,41,03,56,281,29,30,49,170,49*73$GPGSV,3,2,11,21,48,065,36,18,34,118,46,19,25,273,35,22,19,151,44*77$GPGSV,3,3,11,07,16,324,24,26,02,032,18,08,00,347,*4C$GPRMC,020251.000,A,5212.8408,N,00006.0334,E,0.00,,090411,,,A*7B$GPGGA,020252.000,5212.8408,N,00006.0334,E,1,08,1.1,18.3,M,47.0,M,,0000*68$GPGSA,A,3,30,18,22,16,21,03,19,07,,,,,1.9,1.1,1.6*3F$GPRMC,020252.000,A,5212.8408,N,00006.0334,E,0.00,,090411,,,A*78$PTTKT,STAT,0,0,0,0,0*6D
$GPGGA,020253.000,5212.8408,N,00006.0334,E,1,08,1.1,18.3,M,47.0,M,,0000*69$GPGSA,A,3,30,18,22,16,21,03,19,07,,,,,1.9,1.1,1.6*3F$GPRMC,020253.000,A,5212.8408,N,00006.0334,E,0.00,,090411,,,A*79$PTTKT,STAT,0,0,0,0,0*6D
$GPGGA,020254.000,5212.8408,N,00006.0334,E,1,08,1.1,18.3,M,47.0,M,,0000*6E$GPGSA,A,3,30,18,22,16,21,03,19,07,,,,,1.9,1.1,1.6*3F$GPRMC,020254.000,A,5212.8408,N,00006.0334,E,0.00,,090411,,,A*7E$PTTKT,STAT,0,0,0,0,0*6D
$GPGGA,020255.000,5212.8408,N,00006.0334,E,1,08,1.1,18.3,M,47.0,M,,0000*6F$GPGSA,A,3,30,18,22,16,21,03,19,07,,,,,1.9,1.1,1.6*3F$GPRMC,020255.000,A,5212.8408,N,00006.0334,E,0.00,,090411,,,A*7F$PTTKT,STAT,0,0,0,0,0*6D
$GPGGA,020256.000,5212.8408,N,00006.0334,E,1,08,1.1,18.3,M,47.0,M,,0000*6C$GPGSA,A,3,30,18,22,16,21,03,19,07,,,,,1.9,1.1,1.6*3F$GPGSV,3,1,11,06,71,281,,16,70,201,41,03,56,281,28,30,49,170,49*72$GPGSV,3,2,11,21,48,065,36,18,34,118,46,19,25,273,35,22,19,151,44*77$GPGSV,3,3,11,07,16,324,24,26,02,032,18,08,00,347,*4C$GPRMC,020256.000,A,5212.8408,N,00006.0334,E,0.00,,090411,,,A*7C$PTTKT,STAT,0,0,0,0,0*6D
$GPGGA,020257.000,5212.8408,N,00006.0334,E,1,08,1.1,18.3,M,47.0,M,,0000*6D$GPGSA,A,3,30,18,22,16,21,03,19,07,,,,,1.9,1.1,1.6*3F$GPRMC,020257.000,A,5212.8408,N,00006.0334,E,0.00,,090411,,,A*7D$PTTKT,STAT,0,0,0,0,0*6D
$GPGGA,020258.000,5212.8408,N,00006.0334,E,1,08,1.1,18.3,M,47.0,M,,0000*62$GPGSA,A,3,30,18,22,16,21,03,19,07,,,,,1.9,1.1,1.6*3F$GPRMC,020258.000,A,5212.8408,N,00006.0334,E,0.00,,090411,,,A*72$PTTKT,STAT,0,0,0,0,0*6D
$GPGGA,020259.000,5212.8408,N,00006.0334,E,1,08,1.1,18.3,M,47.0,M,,0000*63$GPGSA,A,3,30,18,22,16,21,03,19,07,,,,,1.9,1.1,1.6*3F$GPRMC,020259.000,A,5212.8408,N,00006.0334,E,0.00,,090411,,,A*73$GPGGA,020300.000,5212.8408,N,00006.0334,E,1,08,1.1,18.3,M,47.0,M,,0000*6E$GPGSA,A,3,30,18,22,16,21,03,19,07,,,,,1.9,1.1,1.6*3F$GPRMC,020300.000,A,5212.8408,N,00006.0334,E,0.00,,090411,,,A*7E$PTTKT,STAT,0,0,0,0,0*6D
$GPGGA,020301.000,5212.8408,N,00006.0334,E,1,08,1.1,18.3,M,47.0,M,,0000*6F$GPGSA,A,3,30,18,22,16,21,03,19,07,,,,,1.9,1.1,1.6*3F$GPGSV,3,1,11,06,71,281,,16,70,201,41,03,56,281,28,30,49,170,49*72$GPGSV,3,2,11,21,48,065,36,18,34,118,46,19,25,273,35,22,19,151,44*77$GPGSV,3,3,11,07,16,324,24,26,02,032,16,08,00,347,*42$GPRMC,020301.000,A,5212.8408,N,00006.0334,E,0.00,,090411,,,A*7F$PTTKT,STAT,0,0,0,0,0*6D
$GPGGA,020302.000,5212.8408,N,00006.0334,E,1,08,1.1,18.3,M,47.0,M,,0000*6C$GPGSA,A,3,30,18,22,16,21,03,19,07,,,,,1.9,1.1,1.6*3F$GPRMC,020302.000,A,5212.8408,N,00006.0334,E,0.00,,090411,,,A*7C$PTTKT,STAT,0,0,0,0,0*6D
$GPGGA,020303.000,5212.8408,N,00006.0334,E,1,08,1.1,18.3,M,47.0,M,,0000*6D$GPGSA,A,3,30,18,22,16,21,03,19,07,,,,,1.9,1.1,1.6*3F$GPRMC,020303.000,A,5212.8408,N,00006.0334,E,0.00,,090411,,,A*7D$PTTKT,STAT,0,0,0,0,0*6D
$GPGGA,020304.000,5212.8408,N,00006.0334,E,1,08,1.1,18.3,M,47.0,M,,0000*6A$GPGSA,A,3,30,18,22,16,21,03,19,07,,,,,1.9,1.1,1.6*3F$GPRMC,020304.000,A,5212.8408,N,00006.0334,E,0.00,,090411,,,A*7A$PTTKT,STAT,0,0,0,0,0*6D
$GPGGA,020305.000,5212.8408,N,00006.0334,E,1,08,1.1,18.3,M,47.0,M,,0000*6B$GPGSA,A,3,30,18,22,16,21,03,19,07,,,,,1.9,1.1,1.6*3F$GPRMC,020305.000,A,5212.8408,N,00006.0334,E,0.00,,090411,,,A*7B$PTTKT,STAT,0,0,0,0,0*6D
$GPGGA,020306.000,5212.8408,N,00006.0334,E,1,08,1.1,18.3,M,47.0,M,,0000*68$GPGSA,A,3,30,18,22,16,21,03,19,07,,,,,1.9,1.1,1.6*3F$GPGSV,3,1,11,06,71,281,,16,70,201,41,03,56,281,29,30,49,170,49*73$GPGSV,3,2,11,21,48,065,35,18,34,118,47,19,25,273,35,22,19,151,44*75$GPGSV,3,3,11,07,16,324,24,26,02,032,15,08,00,347,*41$GPRMC,020306.000,A,5212.8408,N,00006.0334,E,0.00,,090411,,,A*78$PTTKT,STAT,0,0,0,0,0*6D
$GPGGA,020307.000,5212.8408,N,00006.0334,E,1,09,1.1,18.3,M,47.0,M,,0000*68$GPGSA,A,3,30,18,22,16,21,03,19,07,06,,,,1.8,1.1,1.4*3A$GPRMC,020307.000,A,5212.8408,N,00006.0334,E,0.00,,090411,,,A*79$PTTKT,STAT,0,0,0,0,0*6D
$GPGGA,020308.000,5212.8408,N,00006.0334,E,1,09,1.1,18.3,M,47.0,M,,0000*67$GPGSA,A,3,30,18,22,16,21,03,19,07,06,,,,1.8,1.1,1.4*3A$GPRMC,020308.000,A,5212.8408,N,00006.0334,E,0.00,,090411,,,A*76$GPGGA,020309.000,5212.8408,N,00006.0334,E,1,09,1.1,18.3,M,47.0,M,,0000*66$GPGSA,A,3,30,18,22,16,21,03,19,07,06,,,,1.8,1.1,1.4*3A$GPRMC,020309.000,A,5212.8408,N,00006.0334,E,0.00,,090411,,,A*77$PTTKT,STAT,0,0,0,0,0*6D
$GPGGA,020310.000,5212.8408,N,00006.0334,E,1,09,1.1,18.3,M,47.0,M,,0000*6E$GPGSA,A,3,30,18,22,16,21,03,19,07,06,,,,1.8,1.1,1.4*3A$GPRMC,020310.000,A,5212.8408,N,00006.0334,E,0.00,,090411,,,A*7F$PTTKT,STAT,0,0,0,0,0*6D
$GPGGA,020311.000,5212.8408,N,00006.0334,E,1,09,1.1,18.3,M,47.0,M,,0000*6F$GPGSA,A,3,30,18,22,16,21,03,19,07,06,,,,1.8,1.1,1.4*3A$GPGSV,3,1,11,06,71,281,23,16,70,201,41,03,56,281,30,30,49,170,48*7B$GPGSV,3,2,11,21,48,065,35,18,34,118,47,19,25,273,35,22,19,151,44*75$GPGSV,3,3,11,07,16,324,24,26,02,032,15,08,00,347,*41$GPRMC,020311.000,A,5212.8408,N,00006.0334,E,0.00,,090411,,,A*7E$PTTKT,STAT,0,0,0,0,0*6D
$GPGGA,020312.000,5212.8408,N,00006.0334,E,1,09,1.1,18.3,M,47.0,M,,0000*6C$GPGSA,A,3,30,18,22,16,21,03,19,07,06,,,,1.8,1.1,1.4*3A$GPRMC,020312.000,A,5212.8408,N,00006.0334,E,0.00,,090411,,,A*7D$PTTKT,STAT,0,0,0,0,0*6D
$GPGGA,020313.000,5212.8408,N,00006.0334,E,1,09,1.1,18.3,M,47.0,M,,0000*6D$GPGSA,A,3,30,18,22,16,21,03,19,07,06,,,,1.8,1.1,1.4*3A$GPRMC,020313.000,A,5212.8408,N,00006.0334,E,0.00,,090411,,,A*7C$PTTKT,STAT,0,0,0,0,0*6D
$GPGGA,020314.000,5212.8408,N,00006.0334,E,1,09,1.1,18.3,M,47.0,M,,0000*6A$GPGSA,A,3,30,18,22,16,21,03,19,07,06,,,,1.8,1.1,1.4*3A$GPRMC,020314.000,A,5212.8408,N,00006.0334,E,0.00,,090411,,,A*7B$PTTKT,STAT,0,0,0,0,0*6D
$GPGGA,020315.000,5212.8408,N,00006.0334,E,1,09,1.1,18.3,M,47.0,M,,0000*6B$GPGSA,A,3,30,18,22,16,21,03,19,07,06,,,,1.8,1.1,1.4*3A$GPRMC,020315.000,A,5212.8408,N,00006.0334,E,0.00,,090411,,,A*7A$PTTKT,STAT,0,0,0,0,0*6D
$GPGGA,020316.000,5212.8408,N,00006.0334,E,1,09,1.1,18.3,M,47.0,M,,0000*68$GPGSA,A,3,30,18,22,16,21,03,19,07,06,,,,1.8,1.1,1.4*3A$GPGSV,3,1,11,06,71,281,25,16,70,201,40,03,56,281,31,30,49,170,48*7D$GPGSV,3,2,11,21,48,065,35,18,34,118,46,19,25,273,35,22,19,151,44*74$GPGSV,3,3,11,07,16,324,25,26,02,032,15,08,00,347,*40$GPRMC,020316.000,A,5212.8408,N,00006.0334,E,0.00,,090411,,,A*79$GPGGA,020317.000,5212.8408,N,00006.0334,E,1,09,1.1,18.3,M,47.0,M,,0000*69$GPGSA,A,3,30,18,22,16,21,03,19,07,06,,,,1.8,1.1,1.4*3A$GPRMC,020317.000,A,5212.8408,N,00006.0334,E,0.00,,090411,,,A*78$PTTKT,STAT,0,0,0,0,0*6D
$GPGGA,020318.000,5212.8408,N,00006.0334,E,1,09,1.1,18.3,M,47.0,M,,0000*66$GPGSA,A,3,30,18,22,16,21,03,19,07,06,,,,1.8,1.1,1.4*3A$GPRMC,020318.000,A,5212.8408,N,00006.0334,E,0.00,,090411,,,A*77$PTTKT,STAT,0,0,0,0,0*6D
$GPGGA,020319.000,5212.8408,N,00006.0334,E,1,09,1.1,18.3,M,47.0,M,,0000*67$GPGSA,A,3,30,18,22,16,21,03,19,07,06,,,,1.8,1.1,1.4*3A$GPRMC,020319.000,A,5212.8408,N,00006.0334,E,0.00,,090411,,,A*76$PTTKT,STAT,0,0,0,0,0*6D
$GPGGA,020320.000,5212.8408,N,00006.0334,E,1,09,1.1,18.3,M,47.0,M,,0000*6D$GPGSA,A,3,30,18,22,16,21,03,19,07,06,,,,1.8,1.1,1.4*3A$GPRMC,020320.000,A,5212.8408,N,00006.0334,E,0.00,,090411,,,A*7C$PTTKT,STAT,0,0,0,0,0*6D
$GPGGA,020321.000,5212.8408,N,00006.0334,E,1,09,1.1,18.3,M,47.0,M,,0000*6C$GPGSA,A,3,30,18,22,16,21,03,19,07,06,,,,1.8,1.1,1.4*3A$GPGSV,3,1,11,06,71,281,26,16,70,201,41,03,56,281,32,30,49,170,48*7C$GPGSV,3,2,11,21,48,065,35,18,34,118,46,19,25,273,36,22,19,151,44*77$GPGSV,3,3,11,07,16,324,30,26,02,032,14,08,00,347,*45$GPRMC,020321.000,A,5212.8408,N,00006.0334,E,0.00,,090411,,,A*7D$PTTKT,STAT,0,0,0,0,0*6D
$GPGGA,020322.000,5212.8408,N,00006.0334,E,1,09,1.1,18.3,M,47.0,M,,0000*6F$GPGSA,A,3,30,18,22,16,21,03,19,07,06,,,,1.8,1.1,1.4*3A$GPRMC,020322.000,A,5212.8408,N,00006.0334,E,0.00,,090411,,,A*7E$PTTKT,STAT,0,0,0,0,0*6D
$GPGGA,020323.000,5212.8408,N,00006.0334,E,1,09,1.1,18.3,M,47.0,M,,0000*6E$GPGSA,A,3,30,18,22,16,21,03,19,07,06,,,,1.8,1.1,1.4*3A$GPRMC,020323.000,A,5212.8408,N,00006.0334,E,0.00,,090411,,,A*7F$PTTKT,STAT,0,0,0,0,0*6D
$GPGGA,020324.000,5212.8408,N,00006.0334,E,1,09,1.1,18.3,M,47.0,M,,0000*69$GPGSA,A,3,30,18,22,16,21,03,19,07,06,,,,1.8,1.1,1.4*3A$GPRMC,020324.000,A,5212.8408,N,00006.0334,E,0.00,,090411,,,A*78$PTTKT,STAT,0,0,0,0,0*6D
$GPGGA,020325.000,5212.8408,N,00006.0334,E,1,09,1.1,18.3,M,47.0,M,,0000*68$GPGSA,A,3,30,18,22,16,21,03,19,07,06,,,,1.8,1.1,1.4*3A$GPRMC,020325.000,A,5212.8408,N,00006.0334,E,0.00,,090411,,,A*79$GPGGA,020326.000,5212.8408,N,00006.0334,E,1,09,1.1,18.3,M,47.0,M,,0000*6B$GPGSA,A,3,30,18,22,16,21,03,19,07,06,,,,1.8,1.1,1.4*3A$GPGSV,3,1,11,06,71,281,26,16,70,201,41,03,56,281,33,30,49,170,47*72$GPGSV,3,2,11,21,48,065,34,18,34,118,46,19,25,273,36,22,19,151,44*76$GPGSV,3,3,11,07,16,324,31,26,02,032,15,08,00,347,*45$GPRMC,020326.000,A,5212.8408,N,00006.0334,E,0.00,,090411,,,A*7A$PTTKT,STAT,0,0,0,0,0*6D
$GPGGA,020327.000,5212.8408,N,00006.0334,E,1,09,1.1,18.3,M,47.0,M,,0000*6A$GPGSA,A,3,30,18,22,16,21,03,19,07,06,,,,1.8,1.1,1.4*3A$GPRMC,020327.000,A,5212.8408,N,00006.0334,E,0.00,,090411,,,A*7B$PTTKT,STAT,0,0,0,0,0*6D
$GPGGA,020328.000,5212.8408,N,00006.0334,E,1,09,1.1,18.3,M,47.0,M,,0000*65$GPGSA,A,3,30,18,22,16,21,03,19,07,06,,,,1.8,1.1,1.4*3A$GPRMC,020328.000,A,5212.8408,N,00006.0334,E,0.00,,090411,,,A*74$PTTKT,STAT,0,0,0,0,0*6D
$GPGGA,020329.000,5212.8408,N,00006.0334,E,1,09,1.1,18.3,M,47.0,M,,0000*64$GPGSA,A,3,30,18,22,16,21,03,19,07,06,,,,1.8,1.1,1.4*3A$GPRMC,020329.000,A,5212.8408,N,00006.0334,E,0.00,,090411,,,A*75$PTTKT,STAT,0,0,0,0,0*6D
$GPGGA,020330.000,5212.8408,N,00006.0334,E,1,09,1.1,18.3,M,47.0,M,,0000*6C$GPGSA,A,3,30,18,22,16,21,03,19,07,06,,,,1.8,1.1,1.4*3A$GPRMC,020330.000,A,5212.8408,N,00006.0334,E,0.00,,090411,,,A*7D$GPGGA,020331.000,5212.8408,N,00006.0334,E,1,09,1.1,18.3,M,47.0,M,,0000*6D$GPGSA,A,3,30,18,22,16,21,03,19,07,06,,,,1.8,1.1,1.4*3A$GPGSV,3,1,11,06,71,281,27,16,70,201,41,03,56,281,33,30,49,170,47*73$GPGSV,3,2,11,21,48,065,34,18,34,118,46,19,25,273,36,22,19,151,44*76$GPGSV,3,3,11,07,16,324,31,26,02,032,15,08,00,347,*45$GPRMC,020331.000,A,5212.8408,N,00006.0334,E,0.00,,090411,,,A*7C$PTTKT,STAT,0,0,0,0,0*6D
$GPGGA,020332.000,5212.8408,N,00006.0334,E,1,09,1.1,18.3,M,47.0,M,,0000*6E$GPGSA,A,3,30,18,22,16,21,03,19,07,06,,,,1.8,1.1,1.4*3A$GPRMC,020332.000,A,5212.8408,N,00006.0334,E,0.00,,090411,,,A*7F$PTTKT,STAT,0,0,0,0,0*6D
$GPGGA,020333.000,5212.8408,N,00006.0334,E,1,09,1.1,18.3,M,47.0,M,,0000*6F$GPGSA,A,3,30,18,22,16,21,03,19,07,06,,,,1.8,1.1,1.4*3A$GPRMC,020333.000,A,5212.8408,N,00006.0334,E,0.00,,090411,,,A*7E$PTTKT,STAT,0,0,0,0,0*6D
$GPGGA,020334.000,5212.8408,N,00006.0334,E,1,09,1.1,18.3,M,47.0,M,,0000*68$GPGSA,A,3,30,18,22,16,21,03,19,07,06,,,,1.8,1.1,1.4*3A$GPRMC,020334.000,A,5212.8408,N,00006.0334,E,0.00,,090411,,,A*79$PTTKT,STAT,0,0,0,0,0*6D
$GPGGA,020335.000,5212.8408,N,00006.0334,E,1,09,1.1,18.3,M,47.0,M,,0000*69$GPGSA,A,3,30,18,22,16,21,03,19,07,06,,,,1.8,1.1,1.4*3A$GPRMC,020335.000,A,5212.8408,N,00006.0334,E,0.00,,090411,,,A*78$PTTKT,STAT,0,0,0,0,0*6D
$GPGGA,020336.000,5212.8408,N,00006.0334,E,1,09,1.1,18.3,M,47.0,M,,0000*6A$GPGSA,A,3,30,18,22,16,21,03,19,07,06,,,,1.8,1.1,1.4*3A$GPGSV,3,1,11,06,71,281,27,16,70,201,41,03,56,281,34,30,49,170,47*74$GPGSV,3,2,11,21,48,065,33,18,34,118,47,19,25,273,36,22,19,151,44*70$GPGSV,3,3,11,07,16,324,30,26,02,032,16,08,00,347,*47$GPRMC,020336.000,A,5212.8408,N,00006.0334,E,0.00,,090411,,,A*7B$PTTKT,STAT,0,0,0,0,0*6D
$GPGGA,020337.000,5212.8408,N,00006.0334,E,1,09,1.1,18.3,M,47.0,M,,0000*6B$GPGSA,A,3,30,18,22,16,21,03,19,07,06,,,,1.8,1.1,1.4*3A$GPRMC,020337.000,A,5212.8408,N,00006.0334,E,0.00,,090411,,,A*7A$PTTKT,STAT,0,0,0,0,0*6D
$GPGGA,020338.000,5212.8408,N,00006.0334,E,1,09,1.1,18.3,M,47.0,M,,0000*64$GPGSA,A,3,30,18,22,16,21,03,19,07,06,,,,1.8,1.1,1.4*3A$GPRMC,020338.000,A,5212.8408,N,00006.0334,E,0.00,,090411,,,A*75$PTTKT,STAT,0,0,0,0,0*6D
$GPGGA,020339.000,5212.8408,N,00006.0334,E,1,09,1.1,18.3,M,47.0,M,,0000*65$GPGSA,A,3,30,18,22,16,21,03,19,07,06,,,,1.8,1.1,1.4*3A$GPRMC,020339.000,A,5212.8408,N,00006.0334,E,0.00,,090411,,,A*74$GPGGA,020340.000,5212.8408,N,00006.0334,E,1,09,1.1,18.3,M,47.0,M,,0000*6B$GPGSA,A,3,30,18,22,16,21,03,19,07,06,,,,1.8,1.1,1.4*3A$GPRMC,020340.000,A,5212.8408,N,00006.0334,E,0.00,,090411,,,A*7A$PTTKT,STAT,0,0,0,0,0*6D
$GPGGA,020341.000,5212.8408,N,00006.0334,E,1,09,1.1,18.3,M,47.0,M,,0000*6A$GPGSA,A,3,30,18,22,16,21,03,19,07,06,,,,1.8,1.1,1.4*3A$GPGSV,3,1,11,06,72,282,27,16,70,200,41,03,57,281,33,30,48,170,47*72$GPGSV,3,2,11,21,47,065,33,18,34,117,47,19,26,273,36,22,20,150,44*78$GPGSV,3,3,11,07,16,323,31,26,03,031,18,08,00,346,*4C$GPRMC,020341.000,A,5212.8408,N,00006.0334,E,0.00,,090411,,,A*7B$PTTKT,STAT,0,0,0,0,0*6D
$GPGGA,020342.000,5212.8408,N,00006.0334,E,1,09,1.1,18.3,M,47.0,M,,0000*69$GPGSA,A,3,30,18,22,16,21,03,19,07,06,,,,1.8,1.1,1.4*3A$GPRMC,020342.000,A,5212.8408,N,00006.0334,E,0.00,,090411,,,A*78$PTTKT,STAT,0,0,0,0,0*6D
$GPGGA,020343.000,5212.8408,N,00006.0334,E,1,09,1.1,18.3,M,47.0,M,,0000*68$GPGSA,A,3,30,18,22,16,21,03,19,07,06,,,,1.8,1.1,1.4*3A$GPRMC,020343.000,A,5212.8408,N,00006.0334,E,0.00,,090411,,,A*79$PTTKT,STAT,0,0,0,0,0*6D
$GPGGA,020344.000,5212.8408,N,00006.0334,E,1,09,1.1,18.3,M,47.0,M,,0000*6F$GPGSA,A,3,30,18,22,16,21,03,19,07,06,,,,1.8,1.1,1.4*3A$GPRMC,020344.000,A,5212.8408,N,00006.0334,E,0.00,,090411,,,A*7E$PTTKT,STAT,0,0,0,0,0*6D
$GPGGA,020345.000,5212.8408,N,00006.0334,E,1,09,1.1,18.3,M,47.0,M,,0000*6E$GPGSA,A,3,30,18,22,16,21,03,19,07,06,,,,1.8,1.1,1.4*3A$GPRMC,020345.000,A,5212.8408,N,00006.0334,E,0.00,,090411,,,A*7F$GPGGA,020346.000,5212.8408,N,00006.0334,E,1,09,1.1,18.3,M,47.0,M,,0000*6D$GPGSA,A,3,30,18,22,16,21,03,19,07,06,,,,1.8,1.1,1.4*3A$GPGSV,3,1,11,06,72,282,27,16,70,199,41,03,57,281,33,30,48,170,47*71$GPGSV,3,2,11,21,47,065,33,18,34,117,47,19,26,274,37,22,20,150,44*7E$GPGSV,3,3,11,07,16,323,32,26,03,031,19,08,00,346,*4E$GPRMC,020346.000,A,5212.8408,N,00006.0334,E,0.00,,090411,,,A*7C$PTTKT,STAT,0,0,0,0,0*6D
$GPGGA,020347.000,5212.8408,N,00006.0334,E,1,09,1.1,18.3,M,47.0,M,,0000*6C$GPGSA,A,3,30,18,22,16,21,03,19,07,06,,,,1.8,1.1,1.4*3A$GPRMC,020347.000,A,5212.8408,N,00006.0334,E,0.00,,090411,,,A*7D$PTTKT,STAT,0,0,0,0,0*6D
$GPGGA,020348.000,5212.8408,N,00006.0334,E,1,09,1.1,18.3,M,47.0,M,,0000*63$GPGSA,A,3,30,18,22,16,21,03,19,07,06,,,,1.8,1.1,1.4*3A$GPRMC,020348.000,A,5212.8408,N,00006.0334,E,0.00,,090411,,,A*72$PTTKT,STAT,0,0,0,0,0*6D
$GPGGA,020349.000,5212.8408,N,00006.0334,E,1,09,1.1,18.3,M,47.0,M,,0000*62$GPGSA,A,3,30,18,22,16,21,03,19,07,06,,,,1.8,1.1,1.4*3A$GPRMC,020349.000,A,5212.8408,N,00006.0334,E,0.00,,090411,,,A*73$PTTKT,STAT,0,0,0,0,0*6D
$GPGGA,020350.000,5212.8408,N,00006.0334,E,1,09,1.1,18.3,M,47.0,M,,0000*6A$GPGSA,A,3,30,18,22,16,21,03,19,07,06,,,,1.8,1.1,1.4*3A$GPRMC,020350.000,A,5212.8408,N,00006.0334,E,0.00,,090411,,,A*7B$PTTKT,STAT,0,0,0,0,0*6D
$GPGGA,020351.000,5212.8408,N,00006.0334,E,1,09,1.1,18.3,M,47.0,M,,0000*6B$GPGSA,A,3,30,18,22,16,21,03,19,07,06,,,,1.8,1.1,1.4*3A$GPGSV,3,1,11,06,72,282,27,16,70,199,41,03,57,281,33,30,48,170,47*71$GPGSV,3,2,11,21,47,065,32,18,34,117,47,19,26,274,36,22,20,150,45*7F$GPGSV,3,3,11,07,16,323,32,26,03,031,20,08,00,346,*44$GPRMC,020351.000,A,5212.8408,N,00006.0334,E,0.00,,090411,,,A*7A$PTTKT,STAT,0,0,0,0,0*6D
$GPGGA,020352.000,5212.8408,N,00006.0334,E,1,09,1.1,18.3,M,47.0,M,,0000*68$GPGSA,A,3,30,18,22,16,21,03,19,07,06,,,,1.8,1.1,1.4*3A$GPRMC,020352.000,A,5212.8408,N,00006.0334,E,0.00,,090411,,,A*79$GPGGA,020353.000,5212.8408,N,00006.0334,E,1,09,1.1,18.3,M,47.0,M,,0000*69$GPGSA,A,3,30,18,22,16,21,03,19,07,06,,,,1.8,1.1,1.4*3A$GPRMC,020353.000,A,5212.8408,N,00006.0334,E,0.00,,090411,,,A*78$PTTKT,STAT,0,0,0,0,0*6D
$GPGGA,020354.000,5212.8408,N,00006.0334,E,1,09,1.1,18.3,M,47.0,M,,0000*6E$GPGSA,A,3,30,18,22,16,21,03,19,07,06,,,,1.8,1.1,1.4*3A$GPRMC,020354.000,A,5212.8408,N,00006.0334,E,0.00,,090411,,,A*7F$PTTKT,STAT,0,0,0,0,0*6D
$GPGGA,020355.000,5212.8408,N,00006.0334,E,1,09,1.1,18.3,M,47.0,M,,0000*6F$GPGSA,A,3,30,18,22,16,21,03,19,07,06,,,,1.8,1.1,1.4*3A$GPRMC,020355.000,A,5212.8408,N,00006.0334,E,0.00,,090411,,,A*7E$PTTKT,STAT,0,0,0,0,0*6D
$GPGGA,020356.000,5212.8408,N,00006.0334,E,1,09,1.1,18.3,M,47.0,M,,0000*6C$GPGSA,A,3,30,18,22,16,21,03,19,07,06,,,,1.8,1.1,1.4*3A$GPGSV,3,1,11,06,72,282,28,16,70,199,41,03,57,281,33,30,48,170,46*7F$GPGSV,3,2,11,21,47,065,32,18,34,117,47,19,26,274,36,22,20,150,45*7F$GPGSV,3,3,11,07,16,323,32,26,03,031,20,08,00,346,*44$GPRMC,020356.000,A,5212.8408,N,00006.0334,E,0.00,,090411,,,A*7D$PTTKT,STAT,0,0,0,0,0*6D
$PTTKT,STAT,0,0,0,0,0*6D
$PTTKT,STAT,0,0,0,0,0*6D
$GPGGA,020357.000,5212.8408,N,00006.0334,E,1,09,1.1,18.3,M,47.0,M,,0000*6D$GPGSA,A,3,30,18,22,16,21,03,19,07,06,,,,1.8,1.1,1.4*3A$GPRMC,020357.000,A,5212.8408,N,00006.0334,E,0.00,,090411,,,A*7C$GPGGA,020358.000,5212.8408,N,00006.0334,E,1,09,1.1,18.3,M,47.0,M,,0000*62$GPGSA,A,3,30,18,22,16,21,03,19,07,06,,,,1.8,1.1,1.4*3A$GPRMC,020358.000,A,5212.8408,N,00006.0334,E,0.00,,090411,,,A*73$GPGGA,020359.000,5212.8408,N,00006.0334,E,1,09,1.1,18.3,M,47.0,M,,0000*63$GPGSA,A,3,30,18,22,16,21,03,19,07,06,,,,1.8,1.1,1.4*3A$GPRMC,020359.000,A,5212.8408,N,00006.0334,E,0.00,,090411,,,A*72$GPGGA,020400.000,5212.8408,N,00006.0334,E,1,09,1.1,18.3,M,47.0,M,,0000*68$GPGSA,A,3,30,18,22,16,21,03,19,07,06,,,,1.8,1.1,1.4*3A$GPRMC,020400.000,A,5212.8408,N,00006.0334,E,0.00,,090411,,,A*79$GPGGA,020401.000,5212.8408,N,00006.0334,E,1,09,1.1,18.3,M,47.0,M,,0000*69$GPGSA,A,3,30,18,22,16,21,03,19,07,06,,,,1.8,1.1,1.4*3A$GPGSV,3,1,11,06,72,282,28,16,70,199,42,03,57,281,33,30,48,170,46*7C$GPGSV,3,2,11,21,47,065,32,18,34,117,47,19,26,274,36,22,20,150,45*7F$GPGSV,3,3,11,07,16,323,33,26,03,031,19,08,00,346,*4F$GPRMC,020401.000,A,5212.8408,N,00006.0334,E,0.00,,090411,,,A*78$PTTKT,STAT,0,0,0,0,0*6D
$GPGGA,020402.000,5212.8408,N,00006.0334,E,1,09,1.1,18.3,M,47.0,M,,0000*6A$GPGSA,A,3,30,18,22,16,21,03,19,07,06,,,,1.8,1.1,1.4*3A$GPRMC,020402.000,A,5212.8408,N,00006.0334,E,0.00,,090411,,,A*7B$PTTKT,STAT,0,0,0,0,0*6D
$GPGGA,020403.000,5212.8408,N,00006.0334,E,1,09,1.1,18.3,M,47.0,M,,0000*6B$GPGSA,A,3,30,18,22,16,21,03,19,07,06,,,,1.8,1.1,1.4*3A$GPRMC,020403.000,A,5212.8408,N,00006.0334,E,0.00,,090411,,,A*7A$GPGGA,020404.000,5212.8408,N,00006.0334,E,1,09,1.1,18.3,M,47.0,M,,0000*6C$GPGSA,A,3,30,18,22,16,21,03,19,07,06,,,,1.8,1.1,1.4*3A$GPRMC,020404.000,A,5212.8408,N,00006.0334,E,0.00,,090411,,,A*7D$PTTKT,STAT,0,0,0,0,0*6D
$GPGGA,020405.000,5212.8408,N,00006.0334,E,1,09,1.1,18.3,M,47.0,M,,0000*6D$GPGSA,A,3,30,18,22,16,21,03,19,07,06,,,,1.8,1.1,1.4*3A$GPRMC,020405.000,A,5212.8408,N,00006.0334,E,0.00,,090411,,,A*7C$PTTKT,STAT,0,0,0,0,0*6D
$GPGGA,020406.000,5212.8408,N,00006.0334,E,1,09,1.1,18.3,M,47.0,M,,0000*6E$GPGSA,A,3,30,18,22,16,21,03,19,07,06,,,,1.8,1.1,1.4*3A$GPGSV,3,1,11,06,72,282,27,16,70,199,42,03,57,281,34,30,48,170,46*74$GPGSV,3,2,11,21,47,065,32,18,34,117,47,19,26,274,35,22,20,150,45*7C$GPGSV,3,3,11,07,16,323,33,26,03,031,19,08,00,346,*4F$GPRMC,020406.000,A,5212.8408,N,00006.0334,E,0.00,,090411,,,A*7F$PTTKT,STAT,0,0,0,0,0*6D
$GPGGA,020407.000,5212.8408,N,00006.0334,E,1,09,1.1,18.3,M,47.0,M,,0000*6F$GPGSA,A,3,30,18,22,16,21,03,19,07,06,,,,1.8,1.1,1.4*3A$GPRMC,020407.000,A,5212.8408,N,00006.0334,E,0.00,,090411,,,A*7E$PTTKT,STAT,0,0,0,0,0*6D
$GPGGA,020408.000,5212.8408,N,00006.0334,E,1,09,1.1,18.3,M,47.0,M,,0000*60$GPGSA,A,3,30,18,22,16,21,03,19,07,06,,,,1.8,1.1,1.4*3A$GPRMC,020408.000,A,5212.8408,N,00006.0334,E,0.00,,090411,,,A*71$PTTKT,STAT,0,0,0,0,0*6D
$GPGGA,020409.000,5212.8408,N,00006.0334,E,1,09,1.1,18.3,M,47.0,M,,0000*61$GPGSA,A,3,30,18,22,16,21,03,19,07,06,,,,1.8,1.1,1.4*3A$GPRMC,020409.000,A,5212.8408,N,00006.0334,E,0.00,,090411,,,A*70$GPGGA,020410.000,5212.8408,N,00006.0334,E,1,09,1.1,18.3,M,47.0,M,,0000*69$GPGSA,A,3,30,18,22,16,21,03,19,07,06,,,,1.8,1.1,1.4*3A$GPRMC,020410.000,A,5212.8408,N,00006.0334,E,0.00,,090411,,,A*78$PTTKT,STAT,0,0,0,0,0*6D
$GPGGA,020411.000,5212.8408,N,00006.0334,E,1,09,1.1,18.3,M,47.0,M,,0000*68$GPGSA,A,3,30,18,22,16,21,03,19,07,06,,,,1.8,1.1,1.4*3A$GPGSV,3,1,11,06,72,282,27,16,69,199,41,03,57,281,34,30,48,170,46*7F$GPGSV,3,2,11,21,47,064,31,18,35,117,47,19,26,274,35,22,20,150,46*7C$GPGSV,3,3,11,07,16,323,32,26,03,031,18,08,00,346,*4F$GPRMC,020411.000,A,5212.8408,N,00006.0334,E,0.00,,090411,,,A*79$PTTKT,STAT,0,0,0,0,0*6D
$GPGGA,020412.000,5212.8408,N,00006.0334,E,1,09,1.1,18.3,M,47.0,M,,0000*6B$GPGSA,A,3,30,18,22,16,21,03,19,07,06,,,,1.8,1.1,1.4*3A$GPRMC,020412.000,A,5212.8408,N,00006.0334,E,0.00,,090411,,,A*7A$PTTKT,STAT,0,0,0,0,0*6D
$GPGGA,020413.000,5212.8408,N,00006.0334,E,1,09,1.1,18.3,M,47.0,M,,0000*6A$GPGSA,A,3,30,18,22,16,21,03,19,07,06,,,,1.8,1.1,1.4*3A$GPRMC,020413.000,A,5212.8408,N,00006.0334,E,0.00,,090411,,,A*7B$PTTKT,STAT,0,0,0,0,0*6D
$GPGGA,020414.000,5212.8408,N,00006.0334,E,1,09,1.1,18.3,M,47.0,M,,0000*6D$GPGSA,A,3,30,18,22,16,21,03,19,07,06,,,,1.8,1.1,1.4*3A$GPRMC,020414.000,A,5212.8408,N,00006.0334,E,0.00,,090411,,,A*7C$PTTKT,STAT,0,0,0,0,0*6D
$GPGGA,020415.000,5212.8408,N,00006.0334,E,1,09,1.1,18.3,M,47.0,M,,0000*6C$GPGSA,A,3,30,18,22,16,21,03,19,07,06,,,,1.8,1.1,1.4*3A$GPRMC,020415.000,A,5212.8408,N,00006.0334,E,0.00,,090411,,,A*7D$PTTKT,STAT,0,0,0,0,0*6D
$GPGGA,020416.000,5212.8408,N,00006.0334,E,1,09,1.1,18.3,M,47.0,M,,0000*6F$GPGSA,A,3,30,18,22,16,21,03,19,07,06,,,,1.8,1.1,1.4*3A$GPGSV,3,1,11,06,72,282,26,16,69,199,41,03,57,281,34,30,48,170,46*7E$GPGSV,3,2,11,21,47,064,30,18,35,117,47,19,26,274,35,22,20,150,46*7D$GPGSV,3,3,11,07,16,323,32,26,03,031,17,08,00,346,*40$GPRMC,020416.000,A,5212.8408,N,00006.0334,E,0.00,,090411,,,A*7E$GPGGA,020417.000,5212.8408,N,00006.0334,E,1,09,1.1,18.3,M,47.0,M,,0000*6E$GPGSA,A,3,30,18,22,16,21,03,19,07,06,,,,1.8,1.1,1.4*3A$GPRMC,020417.000,A,5212.8408,N,00006.0334,E,0.00,,090411,,,A*7F$PTTKT,STAT,0,0,0,0,0*6D
$GPGGA,020418.000,5212.8408,N,00006.0334,E,1,09,1.1,18.3,M,47.0,M,,0000*61$GPGSA,A,3,30,18,22,16,21,03,19,07,06,,,,1.8,1.1,1.4*3A$GPRMC,020418.000,A,5212.8408,N,00006.0334,E,0.00,,090411,,,A*70$PTTKT,STAT,0,0,0,0,0*6D
$GPGGA,020419.000,5212.8408,N,00006.0334,E,1,09,1.1,18.3,M,47.0,M,,0000*60$GPGSA,A,3,30,18,22,16,21,03,19,07,06,,,,1.8,1.1,1.4*3A$GPRMC,020419.000,A,5212.8408,N,00006.0334,E,0.00,,090411,,,A*71$PTTKT,STAT,0,0,0,0,0*6D
$GPGGA,020420.000,5212.8408,N,00006.0334,E,1,09,1.1,18.3,M,47.0,M,,0000*6A$GPGSA,A,3,30,18,22,16,21,03,19,07,06,,,,1.8,1.1,1.4*3A$GPRMC,020420.000,A,5212.8408,N,00006.0334,E,0.00,,090411,,,A*7B$PTTKT,STAT,0,0,0,0,0*6D
$GPGGA,020421.000,5212.8408,N,00006.0334,E,1,09,1.1,18.3,M,47.0,M,,0000*6B$GPGSA,A,3,30,18,22,16,21,03,19,07,06,,,,1.8,1.1,1.4*3A$GPGSV,3,1,11,06,72,282,26,16,69,199,41,03,57,281,34,30,48,170,46*7E$GPGSV,3,2,11,21,47,064,30,18,35,117,47,19,26,274,35,22,20,150,46*7D$GPGSV,3,3,11,07,16,323,32,26,03,031,17,08,00,346,*40$GPRMC,020421.000,A,5212.8408,N,00006.0334,E,0.00,,090411,,,A*7A$PTTKT,STAT,0,0,0,0,0*6D
$GPGGA,020422.000,5212.8408,N,00006.0334,E,1,09,1.1,18.3,M,47.0,M,,0000*68$GPGSA,A,3,30,18,22,16,21,03,19,07,06,,,,1.8,1.1,1.4*3A$GPRMC,020422.000,A,5212.8408,N,00006.0334,E,0.00,,090411,,,A*79$PTTKT,STAT,0,0,0,0,0*6D
$GPGGA,020423.000,5212.8408,N,00006.0334,E,1,09,1.1,18.3,M,47.0,M,,0000*69$GPGSA,A,3,30,18,22,16,21,03,19,07,06,,,,1.8,1.1,1.4*3A$GPRMC,020423.000,A,5212.8408,N,00006.0334,E,0.00,,090411,,,A*78$GPGGA,020424.000,5212.8408,N,00006.0334,E,1,09,1.1,18.3,M,47.0,M,,0000*6E$GPGSA,A,3,30,18,22,16,21,03,19,07,06,,,,1.8,1.1,1.4*3A$GPRMC,020424.000,A,5212.8408,N,00006.0334,E,0.00,,090411,,,A*7F$PTTKT,STAT,0,0,0,0,0*6D
$GPGGA,020425.000,5212.8408,N,00006.0334,E,1,09,1.1,18.3,M,47.0,M,,0000*6F$GPGSA,A,3,30,18,22,16,21,03,19,07,06,,,,1.8,1.1,1.4*3A$GPRMC,020425.000,A,5212.8408,N,00006.0334,E,0.00,,090411,,,A*7E$PTTKT,STAT,0,0,0,0,0*6D
$GPGGA,020426.000,5212.8408,N,00006.0334,E,1,09,1.1,18.3,M,47.0,M,,0000*6C$GPGSA,A,3,30,18,22,16,21,03,19,07,06,,,,1.8,1.1,1.4*3A$GPGSV,3,1,11,06,72,282,34,16,69,199,41,03,57,281,34,30,48,170,47*7C$GPGSV,3,2,11,21,47,064,30,18,35,117,47,19,26,274,35,22,20,150,46*7D$GPGSV,3,3,11,07,16,323,31,26,03,031,16,08,00,346,*42$GPRMC,020426.000,A,5212.8408,N,00006.0334,E,0.00,,090411,,,A*7D$PTTKT,STAT,0,0,0,0,0*6D
$GPGGA,020427.000,5212.8408,N,00006.0334,E,1,08,1.5,18.3,M,47.0,M,,0000*68$GPGSA,A,3,30,18,22,16,03,19,07,06,,,,,2.1,1.5,1.5*36$GPRMC,020427.000,A,5212.8408,N,00006.0334,E,0.00,,090411,,,A*7C$PTTKT,STAT,0,0,0,0,0*6D
$GPGGA,020428.000,5212.8408,N,00006.0334,E,1,08,1.5,18.3,M,47.0,M,,0000*67$GPGSA,A,3,30,18,22,16,03,19,07,06,,,,,2.1,1.5,1.5*36$GPRMC,020428.000,A,5212.8408,N,00006.0334,E,0.00,,090411,,,A*73$PTTKT,STAT,0,0,0,0,0*6D
$GPGGA,020429.000,5212.8408,N,00006.0334,E,1,09,1.1,18.3,M,47.0,M,,0000*63$GPGSA,A,3,30,18,22,16,03,19,07,06,21,,,,1.8,1.1,1.4*3A$GPRMC,020429.000,A,5212.8408,N,00006.0334,E,0.00,,090411,,,A*72$PTTKT,STAT,0,0,0,0,0*6D
$GPGGA,020430.000,5212.8408,N,00006.0334,E,1,09,1.1,18.3,M,47.0,M,,0000*6B$GPGSA,A,3,30,18,22,16,03,19,07,06,21,,,,1.8,1.1,1.4*3A$GPRMC,020430.000,A,5212.8408,N,00006.0334,E,0.00,,090411,,,A*7A$PTTKT,STAT,0,0,0,0,0*6D
$GPGGA,020431.000,5212.8408,N,00006.0334,E,1,09,1.1,18.3,M,47.0,M,,0000*6A$GPGSA,A,3,30,18,22,16,03,19,07,06,21,,,,1.8,1.1,1.4*3A$GPGSV,3,1,11,06,72,282,32,16,69,199,41,03,57,281,34,30,48,170,47*7A$GPGSV,3,2,11,21,47,064,33,18,35,117,46,19,26,274,35,22,20,150,45*7C$GPGSV,3,3,11,07,16,323,31,26,03,031,16,08,00,346,*42$GPRMC,020431.000,A,5212.8408,N,00006.0334,E,0.00,,090411,,,A*7B$GPGGA,020432.000,5212.8408,N,00006.0334,E,1,09,1.1,18.3,M,47.0,M,,0000*69$GPGSA,A,3,30,18,22,16,03,19,07,06,21,,,,1.8,1.1,1.4*3A$GPRMC,020432.000,A,5212.8408,N,00006.0334,E,0.00,,090411,,,A*78$PTTKT,STAT,0,0,0,0,0*6D
$GPGGA,020433.000,5212.8408,N,00006.0334,E,1,09,1.1,18.3,M,47.0,M,,0000*68$GPGSA,A,3,30,18,22,16,03,19,07,06,21,,,,1.8,1.1,1.4*3A$GPRMC,020433.000,A,5212.8408,N,00006.0334,E,0.00,,090411,,,A*79$PTTKT,STAT,0,0,0,0,0*6D
$GPGGA,020434.000,5212.8408,N,00006.0334,E,1,09,1.1,18.3,M,47.0,M,,0000*6F$GPGSA,A,3,30,18,22,16,03,19,07,06,21,,,,1.8,1.1,1.4*3A$GPRMC,020434.000,A,5212.8408,N,00006.0334,E,0.00,,090411,,,A*7E$PTTKT,STAT,0,0,0,0,0*6D
$GPGGA,020435.000,5212.8408,N,00006.0334,E,1,09,1.1,18.3,M,47.0,M,,0000*6E$GPGSA,A,3,30,18,22,16,03,19,07,06,21,,,,1.8,1.1,1.4*3A$GPRMC,020435.000,A,5212.8408,N,00006.0334,E,0.00,,090411,,,A*7F$PTTKT,STAT,0,0,0,0,0*6D
$GPGGA,020436.000,5212.8408,N,00006.0334,E,1,09,1.1,18.3,M,47.0,M,,0000*6D$GPGSA,A,3,30,18,22,16,03,19,07,06,21,,,,1.8,1.1,1.4*3A$GPGSV,3,1,11,06,72,282,32,16,69,199,41,03,57,281,34,30,48,170,47*7A$GPGSV,3,2,11,21,47,064,34,18,35,117,46,19,26,274,34,22,20,150,46*79$GPGSV,3,3,11,07,16,323,31,26,03,031,18,08,00,346,18*45$GPRMC,020436.000,A,5212.8408,N,00006.0334,E,0.00,,090411,,,A*7C$PTTKT,STAT,0,0,0,0,0*6D
$GPGGA,020437.000,5212.8408,N,00006.0334,E,1,09,1.1,18.3,M,47.0,M,,0000*6C$GPGSA,A,3,30,18,22,16,03,19,07,06,21,,,,1.8,1.1,1.4*3A$GPRMC,020437.000,A,5212.8408,N,00006.0334,E,0.00,,090411,,,A*7D$PTTKT,STAT,0,0,0,0,0*6D
$GPGGA,020438.000,5212.8408,N,00006.0334,E,1,09,1.1,18.3,M,47.0,M,,0000*63$GPGSA,A,3,30,18,22,16,03,19,07,06,21,,,,1.8,1.1,1.4*3A$GPRMC,020438.000,A,5212.8408,N,00006.0334,E,0.00,,090411,,,A*72$PTTKT,STAT,0,0,0,0,0*6D
$GPGGA,020439.000,5212.8408,N,00006.0334,E,1,09,1.1,18.3,M,47.0,M,,0000*62$GPGSA,A,3,30,18,22,16,03,19,07,06,21,,,,1.8,1.1,1.4*3A$GPRMC,020439.000,A,5212.8408,N,00006.0334,E,0.00,,090411,,,A*73$GPGGA,020440.000,5212.8408,N,00006.0334,E,1,09,1.1,18.3,M,47.0,M,,0000*6C$GPGSA,A,3,30,18,22,16,03,19,07,06,21,,,,1.8,1.1,1.4*3A$GPRMC,020440.000,A,5212.8408,N,00006.0334,E,0.00,,090411,,,A*7D$PTTKT,STAT,0,0,0,0,0*6D
$GPGGA,020441.000,5212.8408,N,00006.0334,E,1,09,1.1,18.3,M,47.0,M,,0000*6D$GPGSA,A,3,30,18,22,16,03,19,07,06,21,,,,1.8,1.1,1.4*3A$GPGSV,3,1,11,06,72,282,27,16,69,199,41,03,57,281,34,30,48,170,47*7E$GPGSV,3,2,11,21,47,064,34,18,35,117,46,19,27,274,34,22,21,150,45*7A$GPGSV,3,3,11,07,17,323,31,26,03,031,19,08,00,346,*4C$GPRMC,020441.000,A,5212.8408,N,00006.0334,E,0.00,,090411,,,A*7C$PTTKT,STAT,0,0,0,0,0*6D
$GPGGA,020442.000,5212.8408,N,00006.0334,E,1,09,1.1,18.3,M,47.0,M,,0000*6E$GPGSA,A,3,30,18,22,16,03,19,07,06,21,,,,1.8,1.1,1.4*3A$GPRMC,020442.000,A,5212.8408,N,00006.0334,E,0.00,,090411,,,A*7F$PTTKT,STAT,0,0,0,0,0*6D
$GPGGA,020443.000,5212.8408,N,00006.0334,E,1,09,1.1,18.3,M,47.0,M,,0000*6F$GPGSA,A,3,30,18,22,16,03,19,07,06,21,,,,1.8,1.1,1.4*3A$GPRMC,020443.000,A,5212.8408,N,00006.0334,E,0.00,,090411,,,A*7E$PTTKT,STAT,0,0,0,0,0*6D
$GPGGA,020444.000,5212.8408,N,00006.0334,E,1,09,1.1,18.3,M,47.0,M,,0000*68$GPGSA,A,3,30,18,22,16,03,19,07,06,21,,,,1.8,1.1,1.4*3A$GPRMC,020444.000,A,5212.8408,N,00006.0334,E,0.00,,090411,,,A*79$PTTKT,STAT,0,0,0,0,0*6D
$GPGGA,020445.000,5212.8408,N,00006.0334,E,1,09,1.1,18.3,M,47.0,M,,0000*69$GPGSA,A,3,30,18,22,16,03,19,07,06,21,,,,1.8,1.1,1.4*3A$GPRMC,020445.000,A,5212.8408,N,00006.0334,E,0.00,,090411,,,A*78$PTTKT,STAT,0,0,0,0,0*6D
$GPGGA,020446.000,5212.8408,N,00006.0334,E,1,09,1.1,18.3,M,47.0,M,,0000*6A$GPGSA,A,3,30,18,22,16,03,19,07,06,21,,,,1.8,1.1,1.4*3A$GPGSV,3,1,11,06,72,282,27,16,69,199,41,03,57,281,35,30,48,169,48*78$GPGSV,3,2,11,21,47,064,35,18,35,117,46,19,27,274,34,22,21,150,45*7B$GPGSV,3,3,11,07,17,323,30,26,03,031,19,08,01,346,*4C$GPRMC,020446.000,A,5212.8408,N,00006.0334,E,0.00,,090411,,,A*7B$PTTKT,STAT,0,0,0,0,0*6D
$GPGGA,020447.000,5212.8408,N,00006.0334,E,1,08,1.1,18.3,M,47.0,M,,0000*6A$GPGSA,A,3,30,18,22,16,03,19,07,21,,,,,2.0,1.1,1.6*35$GPRMC,020447.000,A,5212.8408,N,00006.0334,E,0.00,,090411,,,A*7A$PTTKT,STAT,0,0,0,0,0*6D
$GPGGA,020448.000,5212.8408,N,00006.0334,E,1,09,1.1,18.3,M,47.0,M,,0000*64$GPGSA,A,3,30,18,22,16,03,19,07,06,21,,,,1.8,1.1,1.4*3A$GPRMC,020448.000,A,5212.8408,N,00006.0334,E,0.00,,090411,,,A*75$GPGGA,020449.000,5212.8408,N,00006.0334,E,1,09,1.1,18.3,M,47.0,M,,0000*65$GPGSA,A,3,30,18,22,16,03,19,07,06,21,,,,1.8,1.1,1.4*3A$GPRMC,020449.000,A,5212.8408,N,00006.0334,E,0.00,,090411,,,A*74$PTTKT,STAT,0,0,0,0,0*6D
$GPGGA,020450.000,5212.8408,N,00006.0334,E,1,09,1.1,18.3,M,47.0,M,,0000*6D$GPGSA,A,3,30,18,22,16,03,19,07,06,21,,,,1.8,1.1,1.4*3A$GPRMC,020450.000,A,5212.8408,N,00006.0334,E,0.00,,090411,,,A*7C$PTTKT,STAT,0,0,0,0,0*6D
$GPGGA,020451.000,5212.8408,N,00006.0334,E,1,09,1.1,18.3,M,47.0,M,,0000*6C$GPGSA,A,3,30,18,22,16,03,19,07,06,21,,,,1.8,1.1,1.4*3A$GPGSV,3,1,11,06,72,282,23,16,69,199,41,03,57,281,35,30,48,169,48*7C$GPGSV,3,2,11,21,47,064,36,18,35,117,46,19,27,274,34,22,21,150,45*78$GPGSV,3,3,11,07,17,323,33,26,03,031,20,08,01,346,*45$GPRMC,020451.000,A,5212.8408,N,00006.0334,E,0.00,,090411,,,A*7D$PTTKT,STAT,0,0,0,0,0*6D
$GPGGA,020452.000,5212.8408,N,00006.0334,E,1,09,1.1,18.3,M,47.0,M,,0000*6F$GPGSA,A,3,30,18,22,16,03,19,07,06,21,,,,1.8,1.1,1.4*3A$GPRMC,020452.000,A,5212.8408,N,00006.0334,E,0.00,,090411,,,A*7E$PTTKT,STAT,0,0,0,0,0*6D
$GPGGA,020453.000,5212.8408,N,00006.0334,E,1,09,1.1,18.3,M,47.0,M,,0000*6E$GPGSA,A,3,30,18,22,16,03,19,07,06,21,,,,1.8,1.1,1.4*3A$GPRMC,020453.000,A,5212.8408,N,00006.0334,E,0.00,,090411,,,A*7F$PTTKT,STAT,0,0,0,0,0*6D
$GPGGA,020454.000,5212.8408,N,00006.0334,E,1,09,1.1,18.3,M,47.0,M,,0000*69$GPGSA,A,3,30,18,22,16,03,19,07,06,21,,,,1.8,1.1,1.4*3A$GPRMC,020454.000,A,5212.8408,N,00006.0334,E,0.00,,090411,,,A*78$PTTKT,STAT,0,0,0,0,0*6D
$GPGGA,020455.000,5212.8408,N,00006.0334,E,1,09,1.1,18.3,M,47.0,M,,0000*68$GPGSA,A,3,30,18,22,16,03,19,07,06,21,,,,1.8,1.1,1.4*3A$GPRMC,020455.000,A,5212.8408,N,00006.0334,E,0.00,,090411,,,A*79$PTTKT,STAT,0,0,0,0,0*6D
$GPGGA,020456.000,5212.8408,N,00006.0334,E,1,09,1.1,18.3,M,47.0,M,,0000*6B$GPGSA,A,3,30,18,22,16,03,19,07,06,21,,,,1.8,1.1,1.4*3A$GPGSV,3,1,11,06,72,282,27,16,69,199,41,03,57,281,35,30,48,169,48*78$GPGSV,3,2,11,21,47,064,35,18,35,117,46,19,27,274,27,22,21,150,44*78$GPGSV,3,3,11,07,17,323,33,26,03,031,20,08,01,346,*45$GPRMC,020456.000,A,5212.8408,N,00006.0334,E,0.00,,090411,,,A*7A$GPGGA,020457.000,5212.8408,N,00006.0334,E,1,09,1.1,18.3,M,47.0,M,,0000*6A$GPGSA,A,3,30,18,22,16,03,19,07,06,21,,,,1.8,1.1,1.4*3A$GPRMC,020457.000,A,5212.8408,N,00006.0334,E,0.00,,090411,,,A*7B$PTTKT,STAT,0,0,0,0,0*6D
$GPGGA,020458.000,5212.8408,N,00006.0334,E,1,09,1.1,18.3,M,47.0,M,,0000*65$GPGSA,A,3,30,18,22,16,03,19,07,06,21,,,,1.8,1.1,1.4*3A$GPRMC,020458.000,A,5212.8408,N,00006.0334,E,0.00,,090411,,,A*74$PTTKT,STAT,0,0,0,0,0*6D
$GPGGA,020459.000,5212.8408,N,00006.0334,E,1,09,1.1,18.3,M,47.0,M,,0000*64$GPGSA,A,3,30,18,22,16,03,19,07,06,21,,,,1.8,1.1,1.4*3A$GPRMC,020459.000,A,5212.8408,N,00006.0334,E,0.00,,090411,,,A*75$PTTKT,STAT,0,0,0,0,0*6D
$GPGGA,020500.000,5212.8408,N,00006.0334,E,1,09,1.1,18.3,M,47.0,M,,0000*69$GPGSA,A,3,30,18,22,16,03,19,07,06,21,,,,1.8,1.1,1.4*3A$GPRMC,020500.000,A,5212.8408,N,00006.0334,E,0.00,,090411,,,A*78$PTTKT,STAT,0,0,0,0,0*6D
$GPGGA,020501.000,5212.8408,N,00006.0334,E,1,09,1.1,18.3,M,47.0,M,,0000*68$GPGSA,A,3,30,18,22,16,03,19,07,06,21,,,,1.8,1.1,1.4*3A$GPGSV,3,1,11,06,72,282,28,16,69,199,41,03,57,281,36,30,48,169,48*74$GPGSV,3,2,11,21,47,064,35,18,35,117,45,19,27,274,27,22,21,150,45*7A$GPGSV,3,3,11,07,17,323,34,26,03,031,21,08,01,346,*43$GPRMC,020501.000,A,5212.8408,N,00006.0334,E,0.00,,090411,,,A*79$PTTKT,STAT,0,0,0,0,0*6D
$GPGGA,020502.000,5212.8408,N,00006.0334,E,1,09,1.1,18.3,M,47.0,M,,0000*6B$GPGSA,A,3,30,18,22,16,03,19,07,06,21,,,,1.8,1.1,1.4*3A$GPRMC,020502.000,A,5212.8408,N,00006.0334,E,0.00,,090411,,,A*7A$PTTKT,STAT,0,0,0,0,0*6D
$GPGGA,020503.000,5212.8408,N,00006.0334,E,1,09,1.1,18.3,M,47.0,M,,0000*6A$GPGSA,A,3,30,18,22,16,03,19,07,06,21,,,,1.8,1.1,1.4*3A$GPRMC,020503.000,A,5212.8408,N,00006.0334,E,0.00,,090411,,,A*7B$GPGGA,020504.000,5212.8408,N,00006.0334,E,1,09,1.1,18.3,M,47.0,M,,0000*6D$GPGSA,A,3,30,18,22,16,03,19,07,06,21,,,,1.8,1.1,1.4*3A$GPRMC,020504.000,A,5212.8408,N,00006.0334,E,0.00,,090411,,,A*7C$PTTKT,STAT,0,0,0,0,0*6D
$GPGGA,020505.000,5212.8408,N,00006.0334,E,1,09,1.1,18.3,M,47.0,M,,0000*6C$GPGSA,A,3,30,18,22,16,03,19,07,06,21,,,,1.8,1.1,1.4*3A$GPRMC,020505.000,A,5212.8408,N,00006.0334,E,0.00,,090411,,,A*7D$PTTKT,STAT,0,0,0,0,0*6D
$GPGGA,020506.000,5212.8408,N,00006.0334,E,1,09,1.1,18.3,M,47.0,M,,0000*6F$GPGSA,A,3,30,18,22,16,03,19,07,06,21,,,,1.8,1.1,1.4*3A$GPGSV,3,1,11,06,72,282,28,16,69,199,42,03,57,281,36,30,48,169,48*77$GPGSV,3,2,11,21,47,064,34,18,35,117,46,19,27,274,28,22,21,150,45*77$GPGSV,3,3,11,07,17,323,34,26,03,031,21,08,01,346,*43$GPRMC,020506.000,A,5212.8408,N,00006.0334,E,0.00,,090411,,,A*7E$PTTKT,STAT,0,0,0,0,0*6D
$GPGGA,020507.000,5212.8408,N,00006.0334,E,1,09,1.1,18.3,M,47.0,M,,0000*6E$GPGSA,A,3,30,18,22,16,03,19,07,06,21,,,,1.8,1.1,1.4*3A$GPRMC,020507.000,A,5212.8408,N,00006.0334,E,0.00,,090411,,,A*7F$PTTKT,STAT,0,0,0,0,0*6D
$GPGGA,020508.000,5212.8408,N,00006.0334,E,1,09,1.1,18.3,M,47.0,M,,0000*61$GPGSA,A,3,30,18,22,16,03,19,07,06,21,,,,1.8,1.1,1.4*3A$GPRMC,020508.000,A,5212.8408,N,00006.0334,E,0.00,,090411,,,A*70$PTTKT,STAT,0,0,0,0,0*6D
$GPGGA,020509.000,5212.8408,N,00006.0334,E,1,09,1.1,18.3,M,47.0,M,,0000*60$GPGSA,A,3,30,18,22,16,03,19,07,06,21,,,,1.8,1.1,1.4*3A$GPRMC,020509.000,A,5212.8408,N,00006.0334,E,0.00,,090411,,,A*71$PTTKT,STAT,0,0,0,0,0*6D
$GPGGA,020510.000,5212.8408,N,00006.0334,E,1,09,1.1,18.3,M,47.0,M,,0000*68$GPGSA,A,3,30,18,22,16,03,19,07,06,21,,,,1.8,1.1,1.4*3A$GPRMC,020510.000,A,5212.8408,N,00006.0334,E,0.00,,090411,,,A*79$PTTKT,STAT,0,0,0,0,0*6D
$GPGGA,020511.000,5212.8408,N,00006.0334,E,1,09,1.1,18.3,M,47.0,M,,0000*69$GPGSA,A,3,30,18,22,16,03,19,07,06,21,,,,1.8,1.1,1.4*3A$GPGSV,3,1,11,06,72,282,25,16,69,199,42,03,57,281,35,30,48,169,48*79$GPGSV,3,2,11,21,47,064,34,18,35,117,46,19,27,274,29,22,21,150,45*76$GPGSV,3,3,11,07,17,323,34,26,03,031,20,08,01,346,*42$GPRMC,020511.000,A,5212.8408,N,00006.0334,E,0.00,,090411,,,A*78$GPGGA,020512.000,5212.8408,N,00006.0334,E,1,09,1.1,18.3,M,47.0,M,,0000*6A$GPGSA,A,3,30,18,22,16,03,19,07,06,21,,,,1.8,1.1,1.4*3A$GPRMC,020512.000,A,5212.8408,N,00006.0334,E,0.00,,090411,,,A*7B$PTTKT,STAT,0,0,0,0,0*6D
$GPGGA,020513.000,5212.8408,N,00006.0334,E,1,09,1.1,18.3,M,47.0,M,,0000*6B$GPGSA,A,3,30,18,22,16,03,19,07,06,21,,,,1.8,1.1,1.4*3A$GPRMC,020513.000,A,5212.8408,N,00006.0334,E,0.00,,090411,,,A*7A$PTTKT,STAT,0,0,0,0,0*6D
$GPGGA,020514.000,5212.8408,N,00006.0334,E,1,09,1.1,18.3,M,47.0,M,,0000*6C$GPGSA,A,3,30,18,22,16,03,19,07,06,21,,,,1.8,1.1,1.4*3A$GPRMC,020514.000,A,5212.8408,N,00006.0334,E,0.00,,090411,,,A*7D$PTTKT,STAT,0,0,0,0,0*6D
$GPGGA,020515.000,5212.8408,N,00006.0334,E,1,09,1.1,18.3,M,47.0,M,,0000*6D$GPGSA,A,3,30,18,22,16,03,19,07,06,21,,,,1.8,1.1,1.4*3A$GPRMC,020515.000,A,5212.8408,N,00006.0334,E,0.00,,090411,,,A*7C$PTTKT,STAT,0,0,0,0,0*6D
$GPGGA,020516.000,5212.8408,N,00006.0334,E,1,09,1.1,18.3,M,47.0,M,,0000*6E$GPGSA,A,3,30,18,22,16,03,19,07,06,21,,,,1.8,1.1,1.4*3A$GPGSV,3,1,11,06,73,282,25,16,69,198,42,03,57,281,35,30,47,169,48*76$GPGSV,3,2,11,21,47,064,34,18,35,117,46,19,27,274,29,22,21,150,45*76$GPGSV,3,3,11,07,17,322,33,26,03,030,19,08,01,346,*4F$GPRMC,020516.000,A,5212.8408,N,00006.0334,E,0.00,,090411,,,A*7F$PTTKT,STAT,0,0,0,0,0*6D
$GPGGA,020517.000,5212.8408,N,00006.0334,E,1,09,1.1,18.3,M,47.0,M,,0000*6F$GPGSA,A,3,30,18,22,16,03,19,07,06,21,,,,1.8,1.1,1.4*3A$GPRMC,020517.000,A,5212.8408,N,00006.0334,E,0.00,,090411,,,A*7E$PTTKT,STAT,0,0,0,0,0*6D
$GPGGA,020518.000,5212.8408,N,00006.0334,E,1,09,1.1,18.3,M,47.0,M,,0000*60$GPGSA,A,3,30,18,22,16,03,19,07,06,21,,,,1.8,1.1,1.4*3A$GPRMC,020518.000,A,5212.8408,N,00006.0334,E,0.00,,090411,,,A*71$PTTKT,STAT,0,0,0,0,0*6D
$GPGGA,020519.000,5212.8408,N,00006.0334,E,1,09,1.1,18.3,M,47.0,M,,0000*61$GPGSA,A,3,30,18,22,16,03,19,07,06,21,,,,1.8,1.1,1.4*3A$GPRMC,020519.000,A,5212.8408,N,00006.0334,E,0.00,,090411,,,A*70$PTTKT,STAT,0,0,0,0,0*6D
$GPGGA,020520.000,5212.8408,N,00006.0334,E,1,09,1.1,18.3,M,47.0,M,,0000*6B$GPGSA,A,3,30,18,22,16,03,19,07,06,21,,,,1.8,1.1,1.4*3A$GPRMC,020520.000,A,5212.8408,N,00006.0334,E,0.00,,090411,,,A*7A$GPGGA,020521.000,5212.8408,N,00006.0334,E,1,09,1.1,18.3,M,47.0,M,,0000*6A$GPGSA,A,3,30,18,22,16,03,19,07,06,21,,,,1.8,1.1,1.4*3A$GPGSV,3,1,11,06,73,282,31,16,69,198,42,03,57,281,35,30,47,169,48*73$GPGSV,3,2,11,21,47,064,34,18,35,117,46,19,27,274,29,22,21,150,44*77$GPGSV,3,3,11,07,17,322,34,26,03,030,20,08,01,346,*42$GPRMC,020521.000,A,5212.8408,N,00006.0334,E,0.00,,090411,,,A*7B$PTTKT,STAT,0,0,0,0,0*6D
$GPGGA,020522.000,5212.8408,N,00006.0334,E,1,09,1.1,18.3,M,47.0,M,,0000*69$GPGSA,A,3,30,18,22,16,03,19,07,06,21,,,,1.8,1.1,1.4*3A$GPRMC,020522.000,A,5212.8408,N,00006.0334,E,0.00,,090411,,,A*78$PTTKT,STAT,0,0,0,0,0*6D
$GPGGA,020523.000,5212.8408,N,00006.0334,E,1,09,1.1,18.3,M,47.0,M,,0000*68$GPGSA,A,3,30,18,22,16,03,19,07,06,21,,,,1.8,1.1,1.4*3A$GPRMC,020523.000,A,5212.8408,N,00006.0334,E,0.00,,090411,,,A*79$PTTKT,STAT,0,0,0,0,0*6D
$GPGGA,020524.000,5212.8408,N,00006.0334,E,1,09,1.1,18.3,M,47.0,M,,0000*6F$GPGSA,A,3,30,18,22,16,03,19,07,06,21,,,,1.8,1.1,1.4*3A$GPRMC,020524.000,A,5212.8408,N,00006.0334,E,0.00,,090411,,,A*7E$PTTKT,STAT,0,0,0,0,0*6D
$GPGGA,020525.000,5212.8408,N,00006.0334,E,1,09,1.1,18.3,M,47.0,M,,0000*6E$GPGSA,A,3,30,18,22,16,03,19,07,06,21,,,,1.8,1.1,1.4*3A$GPRMC,020525.000,A,5212.8408,N,00006.0334,E,0.00,,090411,,,A*7F$PTTKT,STAT,0,0,0,0,0*6D
$GPGGA,020526.000,5212.8408,N,00006.0334,E,1,09,1.1,18.3,M,47.0,M,,0000*6D$GPGSA,A,3,30,18,22,16,03,19,07,06,21,,,,1.8,1.1,1.4*3A$GPGSV,3,1,11,06,73,282,30,16,69,198,41,03,57,281,35,30,47,169,48*71$GPGSV,3,2,11,21,47,064,35,18,35,117,46,19,27,274,28,22,21,150,44*77$GPGSV,3,3,11,07,17,322,34,26,03,030,20,08,01,346,*42$GPRMC,020526.000,A,5212.8408,N,00006.0334,E,0.00,,090411,,,A*7C$PTTKT,STAT,0,0,0,0,0*6D
$GPGGA,020527.000,5212.8408,N,00006.0334,E,1,09,1.1,18.3,M,47.0,M,,0000*6C$GPGSA,A,3,30,18,22,16,03,19,07,06,21,,,,1.8,1.1,1.4*3A$GPRMC,020527.000,A,5212.8408,N,00006.0334,E,0.00,,090411,,,A*7D$GPGGA,020528.000,5212.8408,N,00006.0334,E,1,09,1.1,18.3,M,47.0,M,,0000*63$GPGSA,A,3,30,18,22,16,03,19,07,06,21,,,,1.8,1.1,1.4*3A$GPRMC,020528.000,A,5212.8408,N,00006.0334,E,0.00,,090411,,,A*72$PTTKT,STAT,0,0,0,0,0*6D
$GPGGA,020529.000,5212.8408,N,00006.0334,E,1,09,1.1,18.3,M,47.0,M,,0000*62$GPGSA,A,3,30,18,22,16,03,19,07,06,21,,,,1.8,1.1,1.4*3A$GPRMC,020529.000,A,5212.8408,N,00006.0334,E,0.00,,090411,,,A*73$PTTKT,STAT,0,0,0,0,0*6D
$GPGGA,020530.000,5212.8408,N,00006.0334,E,1,09,1.1,18.3,M,47.0,M,,0000*6A$GPGSA,A,3,30,18,22,16,03,19,07,06,21,,,,1.8,1.1,1.4*3A$GPRMC,020530.000,A,5212.8408,N,00006.0334,E,0.00,,090411,,,A*7B$PTTKT,STAT,0,0,0,0,0*6D
$GPGGA,020531.000,5212.8408,N,00006.0334,E,1,09,1.1,18.3,M,47.0,M,,0000*6B$GPGSA,A,3,30,18,22,16,03,19,07,06,21,,,,1.8,1.1,1.4*3A$GPGSV,3,1,11,06,73,282,30,16,69,198,42,03,57,281,35,30,47,169,48*72$GPGSV,3,2,11,21,47,064,35,18,35,117,46,19,27,274,28,22,21,150,44*77$GPGSV,3,3,11,07,17,322,35,26,03,030,19,08,01,346,*49$GPRMC,020531.000,A,5212.8408,N,00006.0334,E,0.00,,090411,,,A*7A$PTTKT,STAT,0,0,0,0,0*6D
$GPGGA,020532.000,5212.8408,N,00006.0334,E,1,09,1.1,18.3,M,47.0,M,,0000*68$GPGSA,A,3,30,18,22,16,03,19,07,06,21,,,,1.8,1.1,1.4*3A$GPRMC,020532.000,A,5212.8408,N,00006.0334,E,0.00,,090411,,,A*79$PTTKT,STAT,0,0,0,0,0*6D
$GPGGA,020533.000,5212.8408,N,00006.0334,E,1,09,1.1,18.3,M,47.0,M,,0000*69$GPGSA,A,3,30,18,22,16,03,19,07,06,21,,,,1.8,1.1,1.4*3A$GPRMC,020533.000,A,5212.8408,N,00006.0334,E,0.00,,090411,,,A*78$PTTKT,STAT,0,0,0,0,0*6D
$GPGGA,020534.000,5212.8408,N,00006.0334,E,1,09,1.1,18.3,M,47.0,M,,0000*6E$GPGSA,A,3,30,18,22,16,03,19,07,06,21,,,,1.8,1.1,1.4*3A$GPRMC,020534.000,A,5212.8408,N,00006.0334,E,0.00,,090411,,,A*7F$GPGGA,020535.000,5212.8408,N,00006.0334,E,1,09,1.1,18.3,M,47.0,M,,0000*6F$GPGSA,A,3,30,18,22,16,03,19,07,06,21,,,,1.8,1.1,1.4*3A$GPRMC,020535.000,A,5212.8408,N,00006.0334,E,0.00,,090411,,,A*7E$PTTKT,STAT,0,0,0,0,0*6D
$GPGGA,020536.000,5212.8408,N,00006.0334,E,1,09,1.1,18.3,M,47.0,M,,0000*6C$GPGSA,A,3,30,18,22,16,03,19,07,06,21,,,,1.8,1.1,1.4*3A$GPGSV,3,1,11,06,73,282,31,16,69,198,42,03,57,281,35,30,47,169,48*73$GPGSV,3,2,11,21,47,064,33,18,35,117,46,19,27,274,30,22,21,150,44*78$GPGSV,3,3,11,07,17,322,34,26,03,030,20,08,01,346,*42$GPRMC,020536.000,A,5212.8408,N,00006.0334,E,0.00,,090411,,,A*7D$PTTKT,STAT,0,0,0,0,0*6D
$GPGGA,020537.000,5212.8408,N,00006.0334,E,1,09,1.1,18.3,M,47.0,M,,0000*6D$GPGSA,A,3,30,18,22,16,03,19,07,06,21,,,,1.8,1.1,1.4*3A$GPRMC,020537.000,A,5212.8408,N,00006.0334,E,0.00,,090411,,,A*7C$PTTKT,STAT,0,0,0,0,0*6D
$GPGGA,020538.000,5212.8408,N,00006.0334,E,1,09,1.1,18.3,M,47.0,M,,0000*62$GPGSA,A,3,30,18,22,16,03,19,07,06,21,,,,1.8,1.1,1.4*3A$GPRMC,020538.000,A,5212.8408,N,00006.0334,E,0.00,,090411,,,A*73$PTTKT,STAT,0,0,0,0,0*6D
$GPGGA,020539.000,5212.8408,N,00006.0334,E,1,09,1.1,18.3,M,47.0,M,,0000*63$GPGSA,A,3,30,18,22,16,03,19,07,06,21,,,,1.8,1.1,1.4*3A$GPRMC,020539.000,A,5212.8408,N,00006.0334,E,0.00,,090411,,,A*72$PTTKT,STAT,0,0,0,0,0*6D
$GPGGA,020540.000,5212.8408,N,00006.0334,E,1,09,1.1,18.3,M,47.0,M,,0000*6D$GPGSA,A,3,30,18,22,16,03,19,07,06,21,,,,1.8,1.1,1.4*3A$GPRMC,020540.000,A,5212.8408,N,00006.0334,E,0.00,,090411,,,A*7C$PTTKT,STAT,0,0,0,0,0*6D
$GPGGA,020541.000,5212.8408,N,00006.0334,E,1,09,1.1,18.3,M,47.0,M,,0000*6C$GPGSA,A,3,30,18,22,16,03,19,07,06,21,,,,1.8,1.1,1.4*3A$GPGSV,3,1,11,06,73,282,32,16,69,198,42,03,58,281,35,30,47,169,48*7F$GPGSV,3,2,11,21,46,064,35,18,35,117,46,19,27,274,30,22,21,150,44*7F$GPGSV,3,3,11,07,17,322,34,26,03,030,20,08,01,346,*42$GPRMC,020541.000,A,5212.8408,N,00006.0334,E,0.00,,090411,,,A*7D$PTTKT,STAT,0,0,0,0,0*6D
$GPGGA,020542.000,5212.8408,N,00006.0334,E,1,09,1.1,18.3,M,47.0,M,,0000*6F$GPGSA,A,3,30,18,22,16,03,19,07,06,21,,,,1.8,1.1,1.4*3A$GPRMC,020542.000,A,5212.8408,N,00006.0334,E,0.00,,090411,,,A*7E$GPGGA,020543.000,5212.8408,N,00006.0334,E,1,09,1.1,18.3,M,47.0,M,,0000*6E$GPGSA,A,3,30,18,22,16,03,19,07,06,21,,,,1.8,1.1,1.4*3A$GPRMC,020543.000,A,5212.8408,N,00006.0334,E,0.00,,090411,,,A*7F$PTTKT,STAT,0,0,0,0,0*6D
$GPGGA,020544.000,5212.8408,N,00006.0334,E,1,09,1.1,18.3,M,47.0,M,,0000*69$GPGSA,A,3,30,18,22,16,03,19,07,06,21,,,,1.8,1.1,1.4*3A$GPRMC,020544.000,A,5212.8408,N,00006.0334,E,0.00,,090411,,,A*78$PTTKT,STAT,0,0,0,0,0*6D
$GPGGA,020545.000,5212.8408,N,00006.0334,E,1,09,1.1,18.3,M,47.0,M,,0000*68$GPGSA,A,3,30,18,22,16,03,19,07,06,21,,,,1.8,1.1,1.4*3A$GPRMC,020545.000,A,5212.8408,N,00006.0334,E,0.00,,090411,,,A*79$PTTKT,STAT,0,0,0,0,0*6D
$GPGGA,020546.000,5212.8408,N,00006.0334,E,1,09,1.1,18.3,M,47.0,M,,0000*6B$GPGSA,A,3,30,18,22,16,03,19,07,06,21,,,,1.8,1.1,1.4*3A$GPGSV,3,1,11,06,73,282,32,16,69,198,41,03,58,281,35,30,47,169,48*7C$GPGSV,3,2,11,21,46,064,34,18,35,117,46,19,27,274,30,22,21,150,44*7E$GPGSV,3,3,11,07,17,322,33,26,03,030,20,08,01,346,*45$GPRMC,020546.000,A,5212.8408,N,00006.0334,E,0.00,,090411,,,A*7A$PTTKT,STAT,0,0,0,0,0*6D
$GPGGA,020547.000,5212.8408,N,00006.0334,E,1,09,1.1,18.3,M,47.0,M,,0000*6A$GPGSA,A,3,30,18,22,16,03,19,07,06,21,,,,1.8,1.1,1.4*3A$GPRMC,020547.000,A,5212.8408,N,00006.0334,E,0.00,,090411,,,A*7B$PTTKT,STAT,0,0,0,0,0*6D
$GPGGA,020548.000,5212.8408,N,00006.0334,E,1,09,1.1,18.3,M,47.0,M,,0000*65$GPGSA,A,3,30,18,22,16,03,19,07,06,21,,,,1.8,1.1,1.4*3A$GPRMC,020548.000,A,5212.8408,N,00006.0334,E,0.00,,090411,,,A*74$PTTKT,STAT,0,0,0,0,0*6D
$GPGGA,020549.000,5212.8408,N,00006.0334,E,1,09,1.1,18.3,M,47.0,M,,0000*64$GPGSA,A,3,30,18,22,16,03,19,07,06,21,,,,1.8,1.1,1.4*3A$GPRMC,020549.000,A,5212.8408,N,00006.0334,E,0.00,,090411,,,A*75$PTTKT,STAT,0,0,0,0,0*6D
$GPGGA,020550.000,5212.8408,N,00006.0334,E,1,09,1.1,18.3,M,47.0,M,,0000*6C$GPGSA,A,3,30,18,22,16,03,19,07,06,21,,,,1.8,1.1,1.4*3A$GPRMC,020550.000,A,5212.8408,N,00006.0334,E,0.00,,090411,,,A*7D$GPGGA,020551.000,5212.8408,N,00006.0334,E,1,09,1.1,18.3,M,47.0,M,,0000*6D$GPGSA,A,3,30,18,22,16,03,19,07,06,21,,,,1.8,1.1,1.4*3A$GPGSV,3,1,11,06,73,282,32,16,69,198,41,03,58,281,35,30,47,169,48*7C$GPGSV,3,2,11,21,46,064,34,18,35,117,46,19,27,274,30,22,21,150,44*7E$GPGSV,3,3,11,07,17,322,32,26,03,030,19,08,01,346,*4E$GPRMC,020551.000,A,5212.8408,N,00006.0334,E,0.00,,090411,,,A*7C$PTTKT,STAT,0,0,0,0,0*6D
$GPGGA,020552.000,5212.8408,N,00006.0334,E,1,09,1.1,18.3,M,47.0,M,,0000*6E$GPGSA,A,3,30,18,22,16,03,19,07,06,21,,,,1.8,1.1,1.4*3A$GPRMC,020552.000,A,5212.8408,N,00006.0334,E,0.00,,090411,,,A*7F$PTTKT,STAT,0,0,0,0,0*6D
$GPGGA,020553.000,5212.8408,N,00006.0334,E,1,09,1.1,18.3,M,47.0,M,,0000*6F$GPGSA,A,3,30,18,22,16,03,19,07,06,21,,,,1.8,1.1,1.4*3A$GPRMC,020553.000,A,5212.8408,N,00006.0334,E,0.00,,090411,,,A*7E$PTTKT,STAT,0,0,0,0,0*6D
$GPGGA,020554.000,5212.8408,N,00006.0334,E,1,09,1.1,18.3,M,47.0,M,,0000*68$GPGSA,A,3,30,18,22,16,03,19,07,06,21,,,,1.8,1.1,1.4*3A$GPRMC,020554.000,A,5212.8408,N,00006.0334,E,0.00,,090411,,,A*79$PTTKT,STAT,0,0,0,0,0*6D
$GPGGA,020555.000,5212.8408,N,00006.0334,E,1,09,1.1,18.3,M,47.0,M,,0000*69$GPGSA,A,3,30,18,22,16,03,19,07,06,21,,,,1.8,1.1,1.4*3A$GPRMC,020555.000,A,5212.8408,N,00006.0334,E,0.00,,090411,,,A*78$PTTKT,STAT,0,0,0,0,0*6D
$GPGGA,020556.000,5212.8408,N,00006.0334,E,1,09,1.1,18.3,M,47.0,M,,0000*6A$GPGSA,A,3,30,18,22,16,03,19,07,06,21,,,,1.8,1.1,1.4*3A$GPGSV,3,1,11,06,73,282,31,16,69,198,41,03,58,281,36,30,47,169,48*7C$GPGSV,3,2,11,21,46,064,34,18,35,117,46,19,27,274,31,22,21,150,44*7F$GPGSV,3,3,11,07,17,322,32,26,03,030,18,08,01,346,*4F$GPRMC,020556.000,A,5212.8408,N,00006.0334,E,0.00,,090411,,,A*7B$PTTKT,STAT,0,0,0,0,0*6D
$GPGGA,020557.000,5212.8408,N,00006.0334,E,1,09,1.1,18.3,M,47.0,M,,0000*6B$GPGSA,A,3,30,18,22,16,03,19,07,06,21,,,,1.8,1.1,1.4*3A$GPRMC,020557.000,A,5212.8408,N,00006.0334,E,0.00,,090411,,,A*7A$GPGGA,020558.000,5212.8408,N,00006.0334,E,1,09,1.1,18.3,M,47.0,M,,0000*64$GPGSA,A,3,30,18,22,16,03,19,07,06,21,,,,1.8,1.1,1.4*3A$GPRMC,020558.000,A,5212.8408,N,00006.0334,E,0.00,,090411,,,A*75$PTTKT,STAT,0,0,0,0,0*6D
$GPGGA,020559.000,5212.8408,N,00006.0334,E,1,09,1.1,18.3,M,47.0,M,,0000*65$GPGSA,A,3,30,18,22,16,03,19,07,06,21,,,,1.8,1.1,1.4*3A$GPRMC,020559.000,A,5212.8408,N,00006.0334,E,0.00,,090411,,,A*74$PTTKT,STAT,0,0,0,0,0*6D
$GPGGA,020600.000,5212.8408,N,00006.0334,E,1,09,1.1,18.3,M,47.0,M,,0000*6A$GPGSA,A,3,30,18,22,16,03,19,07,06,21,,,,1.8,1.1,1.4*3A$GPRMC,020600.000,A,5212.8408,N,00006.0334,E,0.00,,090411,,,A*7B$PTTKT,STAT,0,0,0,0,0*6D
$GPGGA,020601.000,5212.8408,N,00006.0334,E,1,09,1.1,18.3,M,47.0,M,,0000*6B$GPGSA,A,3,30,18,22,16,03,19,07,06,21,,,,1.8,1.1,1.4*3A$GPGSV,3,1,11,06,73,282,27,16,69,198,41,03,58,281,36,30,47,169,48*7B$GPGSV,3,2,11,21,46,064,34,18,35,117,46,19,27,274,31,22,21,150,44*7F$GPGSV,3,3,11,07,17,322,32,26,03,030,18,08,01,346,*4F$GPRMC,020601.000,A,5212.8408,N,00006.0334,E,0.00,,090411,,,A*7A$PTTKT,STAT,0,0,0,0,0*6D
$GPGGA,020602.000,5212.8408,N,00006.0334,E,1,09,1.1,18.3,M,47.0,M,,0000*68$GPGSA,A,3,30,18,22,16,03,19,07,06,21,,,,1.8,1.1,1.4*3A$GPRMC,020602.000,A,5212.8408,N,00006.0334,E,0.00,,090411,,,A*79$PTTKT,STAT,0,0,0,0,0*6D
$GPGGA,020603.000,5212.8408,N,00006.0334,E,1,09,1.1,18.3,M,47.0,M,,0000*69$GPGSA,A,3,30,18,22,16,03,19,07,06,21,,,,1.8,1.1,1.4*3A$GPRMC,020603.000,A,5212.8408,N,00006.0334,E,0.00,,090411,,,A*78$GPGGA,020604.000,5212.8408,N,00006.0334,E,1,09,1.1,18.3,M,47.0,M,,0000*6E$GPGSA,A,3,30,18,22,16,03,19,07,06,21,,,,1.8,1.1,1.4*3A$GPRMC,020604.000,A,5212.8408,N,00006.0334,E,0.00,,090411,,,A*7F$PTTKT,STAT,0,0,0,0,0*6D
$GPGGA,020605.000,5212.8408,N,00006.0334,E,1,09,1.1,18.3,M,47.0,M,,0000*6F$GPGSA,A,3,30,18,22,16,03,19,07,06,21,,,,1.8,1.1,1.4*3A$GPRMC,020605.000,A,5212.8408,N,00006.0334,E,0.00,,090411,,,A*7E$PTTKT,STAT,0,0,0,0,0*6D
$GPGGA,020606.000,5212.8408,N,00006.0334,E,1,09,1.1,18.3,M,47.0,M,,0000*6C$GPGSA,A,3,30,18,22,16,03,19,07,06,21,,,,1.8,1.1,1.4*3A$GPGSV,3,1,11,06,73,282,28,16,69,198,41,03,58,281,30,30,47,169,48*72$GPGSV,3,2,11,21,46,064,34,18,35,117,46,19,27,274,32,22,21,150,44*7C$GPGSV,3,3,11,07,17,322,23,26,03,030,18,08,01,346,*4F$GPRMC,020606.000,A,5212.8408,N,00006.0334,E,0.00,,090411,,,A*7D$PTTKT,STAT,0,0,0,0,0*6D
$GPGGA,020607.000,5212.8408,N,00006.0334,E,1,09,1.1,18.3,M,47.0,M,,0000*6D$GPGSA,A,3,30,18,22,16,03,19,07,06,21,,,,1.8,1.1,1.5*3B$GPRMC,020607.000,A,5212.8408,N,00006.0334,E,0.00,,090411,,,A*7C$PTTKT,STAT,0,0,0,0,0*6D
$GPGGA,020608.000,5212.8408,N,00006.0334,E,1,09,1.1,18.3,M,47.0,M,,0000*62$GPGSA,A,3,30,18,22,16,03,19,07,06,21,,,,1.8,1.1,1.5*3B$GPRMC,020608.000,A,5212.8408,N,00006.0334,E,0.00,,090411,,,A*73$PTTKT,STAT,0,0,0,0,0*6D
$GPGGA,020609.000,5212.8408,N,00006.0334,E,1,09,1.1,18.3,M,47.0,M,,0000*63$GPGSA,A,3,30,18,22,16,03,19,07,06,21,,,,1.8,1.1,1.5*3B$GPRMC,020609.000,A,5212.8408,N,00006.0334,E,0.00,,090411,,,A*72$PTTKT,STAT,0,0,0,0,0*6D
$GPGGA,020610.000,5212.8408,N,00006.0334,E,1,09,1.1,18.3,M,47.0,M,,0000*6B$GPGSA,A,3,30,18,22,16,03,19,07,06,21,,,,1.8,1.1,1.5*3B$GPRMC,020610.000,A,5212.8408,N,00006.0334,E,0.00,,090411,,,A*7A$PTTKT,STAT,0,0,0,0,0*6D
$GPGGA,020611.000,5212.8408,N,00006.0334,E,1,09,1.1,18.3,M,47.0,M,,0000*6A$GPGSA,A,3,30,18,22,16,03,19,07,06,21,,,,1.8,1.1,1.5*3B$GPGSV,3,1,11,06,73,282,28,16,69,197,40,03,58,281,29,30,47,169,48*74$GPGSV,3,2,11,21,46,064,34,18,35,116,46,19,27,274,32,22,21,150,43*7A$GPGSV,3,3,11,07,17,322,23,26,03,030,18,08,01,346,*4F$GPRMC,020611.000,A,5212.8408,N,00006.0334,E,0.00,,090411,,,A*7B$GPGGA,020612.000,5212.8408,N,00006.0334,E,1,09,1.1,18.3,M,47.0,M,,0000*69$GPGSA,A,3,30,18,22,16,03,19,07,06,21,,,,1.8,1.1,1.5*3B$GPRMC,020612.000,A,5212.8408,N,00006.0334,E,0.00,,090411,,,A*78$PTTKT,STAT,0,0,0,0,0*6D
$GPGGA,020613.000,5212.8408,N,00006.0334,E,1,09,1.1,18.3,M,47.0,M,,0000*68$GPGSA,A,3,30,18,22,16,03,19,07,06,21,,,,1.8,1.1,1.5*3B$GPRMC,020613.000,A,5212.8408,N,00006.0334,E,0.00,,090411,,,A*79$PTTKT,STAT,0,0,0,0,0*6D
$GPGGA,020614.000,5212.8408,N,00006.0334,E,1,09,1.1,18.3,M,47.0,M,,0000*6F$GPGSA,A,3,30,18,22,16,03,19,07,06,21,,,,1.8,1.1,1.5*3B$GPRMC,020614.000,A,5212.8408,N,00006.0334,E,0.00,,090411,,,A*7E$PTTKT,STAT,0,0,0,0,0*6D
$GPGGA,020615.000,5212.8408,N,00006.0334,E,1,09,1.1,18.3,M,47.0,M,,0000*6E$GPGSA,A,3,30,18,22,16,03,19,07,06,21,,,,1.8,1.1,1.5*3B$GPRMC,020615.000,A,5212.8408,N,00006.0334,E,0.00,,090411,,,A*7F$PTTKT,STAT,0,0,0,0,0*6D
$GPGGA,020616.000,5212.8408,N,00006.0334,E,1,09,1.1,18.3,M,47.0,M,,0000*6D$GPGSA,A,3,30,18,22,16,03,19,07,06,21,,,,1.8,1.1,1.5*3B$GPGSV,3,1,11,06,73,282,28,16,69,197,41,03,58,282,29,30,47,169,47*79$GPGSV,3,2,11,21,46,064,34,18,35,116,46,19,27,274,33,22,21,150,44*7C$GPGSV,3,3,11,07,17,322,28,26,03,030,19,08,01,346,*45$GPRMC,020616.000,A,5212.8408,N,00006.0334,E,0.00,,090411,,,A*7C$PTTKT,STAT,0,0,0,0,0*6D
$GPGGA,020617.000,5212.8408,N,00006.0334,E,1,09,1.1,18.3,M,47.0,M,,0000*6C$GPGSA,A,3,30,18,22,16,03,19,07,06,21,,,,1.8,1.1,1.5*3B$GPRMC,020617.000,A,5212.8408,N,00006.0334,E,0.00,,090411,,,A*7D$PTTKT,STAT,0,0,0,0,0*6D
$GPGGA,020618.000,5212.8408,N,00006.0334,E,1,09,1.1,18.3,M,47.0,M,,0000*63$GPGSA,A,3,30,18,22,16,03,19,07,06,21,,,,1.8,1.1,1.5*3B$GPRMC,020618.000,A,5212.8408,N,00006.0334,E,0.00,,090411,,,A*72$PTTKT,STAT,0,0,0,0,0*6D
$GPGGA,020619.000,5212.8408,N,00006.0334,E,1,09,1.1,18.3,M,47.0,M,,0000*62$GPGSA,A,3,30,18,22,16,03,19,07,06,21,,,,1.8,1.1,1.5*3B$GPRMC,020619.000,A,5212.8408,N,00006.0334,E,0.00,,090411,,,A*73$PTTKT,STAT,0,0,0,0,0*6D
$GPGGA,020620.000,5212.8408,N,00006.0334,E,1,09,1.1,18.3,M,47.0,M,,0000*68$GPGSA,A,3,30,18,22,16,03,19,07,06,21,,,,1.8,1.1,1.5*3B$GPRMC,020620.000,A,5212.8408,N,00006.0334,E,0.00,,090411,,,A*79$GPGGA,020621.000,5212.8408,N,00006.0334,E,1,09,1.1,18.3,M,47.0,M,,0000*69$GPGSA,A,3,30,18,22,16,03,19,07,06,21,,,,1.8,1.1,1.5*3B$GPGSV,3,1,11,06,73,282,28,16,69,197,41,03,58,282,27,30,47,169,47*77$GPGSV,3,2,11,21,46,064,35,18,35,116,46,19,27,274,33,22,21,150,43*7A$GPGSV,3,3,11,07,17,322,28,26,03,030,20,08,01,346,*4F$GPRMC,020621.000,A,5212.8408,N,00006.0334,E,0.00,,090411,,,A*78$PTTKT,STAT,0,0,0,0,0*6D
$GPGGA,020622.000,5212.8408,N,00006.0334,E,1,09,1.1,18.3,M,47.0,M,,0000*6A$GPGSA,A,3,30,18,22,16,03,19,07,06,21,,,,1.8,1.1,1.5*3B$GPRMC,020622.000,A,5212.8408,N,00006.0334,E,0.00,,090411,,,A*7B$PTTKT,STAT,0,0,0,0,0*6D
$GPGGA,020623.000,5212.8408,N,00006.0334,E,1,09,1.1,18.3,M,47.0,M,,0000*6B$GPGSA,A,3,30,18,22,16,03,19,07,06,21,,,,1.8,1.1,1.5*3B$GPRMC,020623.000,A,5212.8408,N,00006.0334,E,0.00,,090411,,,A*7A$PTTKT,STAT,0,0,0,0,0*6D
$GPGGA,020624.000,5212.8408,N,00006.0334,E,1,09,1.1,18.3,M,47.0,M,,0000*6C$GPGSA,A,3,30,18,22,16,03,19,07,06,21,,,,1.8,1.1,1.5*3B$GPRMC,020624.000,A,5212.8408,N,00006.0334,E,0.00,,090411,,,A*7D$PTTKT,STAT,0,0,0,0,0*6D
$GPGGA,020625.000,5212.8408,N,00006.0334,E,1,09,1.1,18.3,M,47.0,M,,0000*6D$GPGSA,A,3,30,18,22,16,03,19,07,06,21,,,,1.8,1.1,1.5*3B$GPRMC,020625.000,A,5212.8408,N,00006.0334,E,0.00,,090411,,,A*7C$PTTKT,STAT,0,0,0,0,0*6D
$GPGGA,020626.000,5212.8408,N,00006.0334,E,1,09,1.1,18.3,M,47.0,M,,0000*6E$GPGSA,A,3,30,18,22,16,03,19,07,06,21,,,,1.8,1.1,1.5*3B$GPGSV,3,1,11,06,73,282,28,16,69,197,41,03,58,282,24,30,47,169,47*74$GPGSV,3,2,11,21,46,064,34,18,35,116,46,19,27,274,33,22,21,150,43*7B$GPGSV,3,3,11,07,17,322,28,26,03,030,20,08,01,346,*4F$GPRMC,020626.000,A,5212.8408,N,00006.0334,E,0.00,,090411,,,A*7F$PTTKT,STAT,0,0,0,0,0*6D
$GPGGA,020627.000,5212.8408,N,00006.0334,E,1,09,1.1,18.3,M,47.0,M,,0000*6F$GPGSA,A,3,30,18,22,16,03,19,07,06,21,,,,1.8,1.1,1.5*3B$GPRMC,020627.000,A,5212.8408,N,00006.0334,E,0.00,,090411,,,A*7E$GPGGA,020628.000,5212.8408,N,00006.0334,E,1,09,1.1,18.3,M,47.0,M,,0000*60$GPGSA,A,3,30,18,22,16,03,19,07,06,21,,,,1.8,1.1,1.5*3B$GPRMC,020628.000,A,5212.8408,N,00006.0334,E,0.00,,090411,,,A*71$PTTKT,STAT,0,0,0,0,0*6D
$GPGGA,020629.000,5212.8408,N,00006.0334,E,1,09,1.1,18.3,M,47.0,M,,0000*61$GPGSA,A,3,30,18,22,16,03,19,07,06,21,,,,1.8,1.1,1.5*3B$GPRMC,020629.000,A,5212.8408,N,00006.0334,E,0.00,,090411,,,A*70$PTTKT,STAT,0,0,0,0,0*6D
$GPGGA,020630.000,5212.8408,N,00006.0334,E,1,09,1.1,18.3,M,47.0,M,,0000*69$GPGSA,A,3,30,18,22,16,03,19,07,06,21,,,,1.8,1.1,1.5*3B$GPRMC,020630.000,A,5212.8408,N,00006.0334,E,0.00,,090411,,,A*78$PTTKT,STAT,0,0,0,0,0*6D
