$GPGSV,3,3,11,23,10,299,29,13,09,332,37,03,06,256,27*4C$GPRMC,235954.000,A,5117.3237,N,00007.9994,E,58.89,68.38,080411,,,A*6A$GPGGA,235955.000,5117.3298,N,00008.0236,E,1,09,0.9,86.4,M,47.0,M,,0000*65$GPGSA,A,3,29,21,05,16,25,06,30,23,31,,,,1.8,0.9,1.5*3D$GPRMC,235955.000,A,5117.3298,N,00008.0236,E,58.58,68.29,080411,,,A*67$PTTKT,STAT,0,0,0,0,0*6D
$GPGGA,235956.000,5117.3358,N,00008.0475,E,1,09,0.9,85.9,M,47.0,M,,0000*64$GPGSA,A,3,29,21,05,16,25,06,30,23,31,,,,1.8,0.9,1.5*3D$GPRMC,235956.000,A,5117.3358,N,00008.0475,E,58.26,68.33,080411,,,A*6A$PTTKT,STAT,0,0,0,0,0*6D
$GPGGA,235957.000,5117.3418,N,00008.0714,E,1,09,0.9,85.4,M,47.0,M,,0000*6F$GPGSA,A,3,29,21,05,16,25,06,30,23,31,,,,1.8,0.9,1.5*3D$GPRMC,235957.000,A,5117.3418,N,00008.0714,E,58.00,67.90,080411,,,A*6E$GPGGA,235958.000,5117.3479,N,00008.0950,E,1,09,0.9,84.9,M,47.0,M,,0000*65$GPGSA,A,3,29,21,05,16,25,06,30,23,31,,,,1.8,0.9,1.5*3D$GPRMC,235958.000,A,5117.3479,N,00008.0950,E,57.81,67.56,080411,,,A*64$PTTKT,STAT,0,0,0,0,0*6D
$GPGGA,235959.000,5117.3541,N,00008.1186,E,1,09,0.9,84.4,M,47.0,M,,0000*61$GPGSA,A,3,29,21,05,16,25,06,30,23,31,,,,1.8,0.9,1.5*3D$GPGSV,3,1,11,30,62,293,41,21,53,151,42,31,43,209,33,29,43,067,47*77$GPGSV,3,2,11,16,39,297,38,25,23,120,48,06,20,253,32,05,14,046,38*73$GPGSV,3,3,11,23,10,299,34,13,09,332,42,03,06,256,27*42$GPRMC,235959.000,A,5117.3541,N,00008.1186,E,57.61,67.24,080411,,,A*66$PTTKT,STAT,0,0,0,0,0*6D
$GPGGA,000000.000,5117.3603,N,00008.1419,E,1,09,0.9,83.9,M,47.0,M,,0000*6C$GPGSA,A,3,29,21,05,16,25,06,30,23,31,,,,1.8,0.9,1.5*3D$GPRMC,000000.000,A,5117.3603,N,00008.1419,E,57.28,66.88,090411,,,A*6A$GPGGA,000001.000,5117.3666,N,00008.1652,E,1,09,0.9,83.3,M,47.0,M,,0000*69$GPGSA,A,3,29,21,05,16,25,06,30,23,31,,,,1.8,0.9,1.5*3D$GPRMC,000001.000,A,5117.3666,N,00008.1652,E,57.34,66.63,090411,,,A*6D$PTTKT,STAT,0,0,0,0,0*6D
$GPGGA,000002.000,5117.3730,N,00008.1884,E,1,09,0.9,82.9,M,47.0,M,,0000*66$GPGSA,A,3,29,21,05,16,25,06,30,23,31,,,,1.8,0.9,1.5*3D$GPRMC,000002.000,A,5117.3730,N,00008.1884,E,57.34,66.28,090411,,,A*66$PTTKT,STAT,0,0,0,0,0*6D
$GPGGA,000003.000,5117.3794,N,00008.2115,E,1,09,0.9,82.4,M,47.0,M,,0000*66$GPGSA,A,3,29,21,05,16,25,06,30,23,31,,,,1.8,0.9,1.5*3D$GPRMC,000003.000,A,5117.3794,N,00008.2115,E,57.33,65.87,090411,,,A*6A$PTTKT,STAT,0,0,0,0,0*6D
$GPGGA,000004.000,5117.3860,N,00008.2346,E,1,08,1.0,82.0,M,47.0,M,,0000*6C$GPGSA,A,3,29,21,05,16,25,06,30,31,,,,,2.0,1.0,1.7*3D$GPGSV,3,1,11,30,62,293,41,21,53,151,42,31,43,209,33,29,43,067,47*77$GPGSV,3,2,11,16,39,297,33,25,23,120,48,06,20,253,31,05,14,046,39*7A$GPGSV,3,3,11,23,10,299,23,13,09,332,16,03,06,256,27*45$GPRMC,000004.000,A,5117.3860,N,00008.2346,E,57.32,65.60,090411,,,A*65$GPGGA,000005.000,5117.3926,N,00008.2577,E,1,08,1.0,81.5,M,47.0,M,,0000*6C$GPGSA,A,3,29,21,05,16,25,06,30,31,,,,,2.0,1.0,1.7*3D$GPRMC,000005.000,A,5117.3926,N,00008.2577,E,57.30,65.49,090411,,,A*6A$PTTKT,STAT,0,0,0,0,0*6D
$GPGGA,000006.000,5117.3992,N,00008.2807,E,1,08,1.0,81.1,M,47.0,M,,0000*6E$GPGSA,A,3,29,21,05,16,25,06,30,31,,,,,2.0,1.0,1.7*3D$GPRMC,000006.000,A,5117.3992,N,00008.2807,E,57.37,65.14,090411,,,A*63$PTTKT,STAT,0,0,0,0,0*6D
$GPGGA,000007.000,5117.4060,N,00008.3037,E,1,08,1.0,80.7,M,47.0,M,,0000*61$GPGSA,A,3,29,21,05,16,25,06,30,31,,,,,2.0,1.0,1.7*3D$GPRMC,000007.000,A,5117.4060,N,00008.3037,E,57.37,64.74,090411,,,A*6C$PTTKT,STAT,0,0,0,0,0*6D
$GPGGA,000008.000,5117.4128,N,00008.3266,E,1,08,1.0,80.4,M,47.0,M,,0000*66$GPGSA,A,3,29,21,05,16,25,06,30,31,,,,,2.0,1.0,1.7*3D$GPRMC,000008.000,A,5117.4128,N,00008.3266,E,57.33,64.52,090411,,,A*68$GPGGA,000009.000,5117.4197,N,00008.3495,E,1,08,1.0,80.2,M,47.0,M,,0000*6F$GPGSA,A,3,29,21,05,16,25,06,30,31,,,,,2.0,1.0,1.7*3D$GPGSV,3,1,11,30,62,293,42,21,53,151,42,31,43,209,26,29,43,067,46*71$GPGSV,3,2,11,16,39,297,26,25,23,120,48,06,20,253,30,05,14,046,43*72$GPGSV,3,3,11,23,10,299,,13,09,332,43,03,06,256,16*46$GPRMC,000009.000,A,5117.4197,N,00008.3495,E,57.28,64.12,090411,,,A*69$PTTKT,STAT,0,0,0,0,0*6D
$GPGGA,000010.000,5117.4268,N,00008.3722,E,1,08,1.0,80.0,M,47.0,M,,0000*69$GPGSA,A,3,29,21,05,16,25,06,30,31,,,,,2.0,1.0,1.7*3D$GPRMC,000010.000,A,5117.4268,N,00008.3722,E,57.16,63.03,090411,,,A*67$PTTKT,STAT,0,0,0,0,0*6D
$GPGGA,000011.000,5117.4343,N,00008.3944,E,1,08,1.0,79.9,M,47.0,M,,0000*61$GPGSA,A,3,29,21,05,16,25,06,30,31,,,,,2.0,1.0,1.7*3D$GPRMC,000011.000,A,5117.4343,N,00008.3944,E,56.99,61.12,090411,,,A*64$GPGGA,000012.000,5117.4422,N,00008.4162,E,1,09,0.9,79.7,M,47.0,M,,0000*6E$GPGSA,A,3,29,21,05,16,25,06,30,23,31,,,,1.8,0.9,1.5*3D$GPRMC,000012.000,A,5117.4422,N,00008.4162,E,56.71,58.90,090411,,,A*6A$PTTKT,STAT,0,0,0,0,0*6D
$GPGGA,000013.000,5117.4507,N,00008.4373,E,1,09,0.9,79.6,M,47.0,M,,0000*6A$GPGSA,A,3,29,21,05,16,25,06,30,23,31,,,,1.8,0.9,1.5*3D$GPRMC,000013.000,A,5117.4507,N,00008.4373,E,56.66,56.23,090411,,,A*6F$PTTKT,STAT,0,0,0,0,0*6D
$GPGGA,000014.000,5117.4598,N,00008.4576,E,1,09,0.9,79.5,M,47.0,M,,0000*6B$GPGSA,A,3,29,21,05,16,25,06,30,23,31,,,,1.8,0.9,1.5*3D$GPGSV,3,1,11,30,62,293,36,21,53,151,42,31,43,209,26,29,43,067,44*70$GPGSV,3,2,11,16,39,297,39,25,23,120,47,06,20,253,23,05,14,046,43*71$GPGSV,3,3,11,23,10,299,32,13,09,332,24,03,06,256,*41$GPRMC,000014.000,A,5117.4598,N,00008.4576,E,56.42,52.99,090411,,,A*6E$GPGGA,000015.000,5117.4696,N,00008.4770,E,1,09,0.9,79.4,M,47.0,M,,0000*62$GPGSA,A,3,29,21,05,16,25,06,30,23,31,,,,1.8,0.9,1.5*3D$GPRMC,000015.000,A,5117.4696,N,00008.4770,E,56.19,49.84,090411,,,A*6E$PTTKT,STAT,0,0,0,0,0*6D
$GPGGA,000016.000,5117.4800,N,00008.4954,E,1,09,0.9,79.4,M,47.0,M,,0000*68$GPGSA,A,3,29,21,05,16,25,06,30,23,31,,,,1.8,0.9,1.5*3D$GPRMC,000016.000,A,5117.4800,N,00008.4954,E,55.83,47.02,090411,,,A*64$PTTKT,STAT,0,0,0,0,0*6D
$GPGGA,000017.000,5117.4909,N,00008.5127,E,1,08,1.0,79.2,M,47.0,M,,0000*63$GPGSA,A,3,29,21,05,16,25,06,30,31,,,,,2.0,1.0,1.7*3D$GPRMC,000017.000,A,5117.4909,N,00008.5127,E,55.26,43.26,090411,,,A*6D$GPGGA,000018.000,5117.5024,N,00008.5287,E,1,08,1.0,79.4,M,47.0,M,,0000*64$GPGSA,A,3,29,21,05,16,25,06,30,31,,,,,2.0,1.0,1.7*3D$GPRMC,000018.000,A,5117.5024,N,00008.5287,E,54.72,40.20,090411,,,A*69$PTTKT,STAT,0,0,0,0,0*6D
$GPGGA,000019.000,5117.5143,N,00008.5436,E,1,08,1.0,79.7,M,47.0,M,,0000*6A$GPGSA,A,3,29,21,05,16,25,06,30,31,,,,,2.0,1.0,1.7*3D$GPGSV,3,1,11,30,62,293,41,21,53,151,37,31,43,209,33,29,43,067,44*76$GPGSV,3,2,11,16,39,297,31,25,23,120,43,06,20,253,34,05,14,046,42*7A$GPGSV,3,3,11,23,10,299,,13,09,332,,03,06,256,*46$GPRMC,000019.000,A,5117.5143,N,00008.5436,E,54.09,37.18,090411,,,A*63$PTTKT,STAT,0,0,0,0,0*6D
$GPGGA,000020.000,5117.5265,N,00008.5574,E,1,08,1.0,79.9,M,47.0,M,,0000*6E$GPGSA,A,3,29,21,05,16,25,06,30,31,,,,,2.0,1.0,1.7*3D$GPRMC,000020.000,A,5117.5265,N,00008.5574,E,53.61,34.34,090411,,,A*6D$GPGGA,000021.000,5117.5390,N,00008.5701,E,1,08,1.0,80.2,M,47.0,M,,0000*69$GPGSA,A,3,29,21,05,16,25,06,30,31,,,,,2.0,1.0,1.7*3D$GPRMC,000021.000,A,5117.5390,N,00008.5701,E,53.27,31.44,090411,,,A*67$PTTKT,STAT,0,0,0,0,0*6D
$GPGGA,000022.000,5117.5519,N,00008.5816,E,1,08,1.0,80.6,M,47.0,M,,0000*60$GPGSA,A,3,29,21,05,16,25,06,30,31,,,,,2.0,1.0,1.7*3D$GPRMC,000022.000,A,5117.5519,N,00008.5816,E,52.89,27.97,090411,,,A*66$PTTKT,STAT,0,0,0,0,0*6D
$GPGGA,000023.000,5117.5651,N,00008.5919,E,1,08,1.0,81.0,M,47.0,M,,0000*67$GPGSA,A,3,29,21,05,16,25,06,30,31,,,,,2.0,1.0,1.7*3D$GPRMC,000023.000,A,5117.5651,N,00008.5919,E,52.30,25.12,090411,,,A*6B$GPGGA,000024.000,5117.5784,N,00008.6010,E,1,08,1.0,81.4,M,47.0,M,,0000*6E$GPGSA,A,3,29,21,05,16,25,06,30,31,,,,,2.0,1.0,1.7*3D$GPGSV,3,1,11,30,62,293,43,21,53,151,37,31,43,209,29,29,43,067,44*7F$GPGSV,3,2,11,16,39,297,33,25,23,120,40,06,20,253,33,05,14,046,45*7B$GPGSV,3,3,11,23,10,299,,13,09,332,,03,06,256,*46$GPRMC,000024.000,A,5117.5784,N,00008.6010,E,51.99,22.20,090411,,,A*60$PTTKT,STAT,0,0,0,0,0*6D
$GPGGA,000025.000,5117.5919,N,00008.6089,E,1,08,1.0,81.6,M,47.0,M,,0000*67$GPGSA,A,3,29,21,05,16,25,06,30,31,,,,,2.0,1.0,1.7*3D$GPRMC,000025.000,A,5117.5919,N,00008.6089,E,51.64,19.50,090411,,,A*66$PTTKT,STAT,0,0,0,0,0*6D
$GPGGA,000026.000,5117.6056,N,00008.6159,E,1,08,1.0,81.8,M,47.0,M,,0000*67$GPGSA,A,3,29,21,05,16,25,06,30,31,,,,,2.0,1.0,1.7*3D$GPRMC,000026.000,A,5117.6056,N,00008.6159,E,51.39,17.44,090411,,,A*6B$PTTKT,STAT,0,0,0,0,0*6D
$GPGGA,000027.000,5117.6194,N,00008.6221,E,1,08,1.0,82.0,M,47.0,M,,0000*6E$GPGSA,A,3,29,21,05,16,25,06,30,31,,,,,2.0,1.0,1.7*3D$GPRMC,000027.000,A,5117.6194,N,00008.6221,E,51.25,15.57,090411,,,A*64$GPGGA,000028.000,5117.6333,N,00008.6276,E,1,08,1.0,82.2,M,47.0,M,,0000*6E$GPGSA,A,3,29,21,05,16,25,06,30,31,,,,,2.0,1.0,1.7*3D$GPRMC,000028.000,A,5117.6333,N,00008.6276,E,51.41,13.70,090411,,,A*67$PTTKT,STAT,0,0,0,0,0*6D
$GPGGA,000029.000,5117.6474,N,00008.6324,E,1,08,1.0,82.4,M,47.0,M,,0000*6B$GPGSA,A,3,29,21,05,16,25,06,30,31,,,,,2.0,1.0,1.7*3D$GPGSV,3,1,11,30,62,293,43,21,53,151,36,31,43,209,25,29,43,067,44*72$GPGSV,3,2,11,16,39,297,42,25,23,120,38,06,20,253,23,05,14,046,48*7E$GPGSV,3,3,11,23,10,299,,13,09,332,,03,06,256,*46$GPRMC,000029.000,A,5117.6474,N,00008.6324,E,51.54,11.94,090411,,,A*68$PTTKT,STAT,0,0,0,0,0*6D
$GPGGA,000030.000,5117.6616,N,00008.6367,E,1,08,1.0,82.7,M,47.0,M,,0000*61$GPGSA,A,3,29,21,05,16,25,06,30,31,,,,,2.0,1.0,1.7*3D$GPRMC,000030.000,A,5117.6616,N,00008.6367,E,51.55,11.33,090411,,,A*6D$PTTKT,STAT,0,0,0,0,0*6D
$GPGGA,000031.000,5117.6757,N,00008.6410,E,1,09,0.9,83.0,M,47.0,M,,0000*6C$GPGSA,A,3,29,21,05,16,25,06,23,30,31,,,,1.8,0.9,1.5*3D$GPRMC,000031.000,A,5117.6757,N,00008.6410,E,51.53,11.34,090411,,,A*6E$GPGGA,000032.000,5117.6899,N,00008.6453,E,1,09,0.9,83.3,M,47.0,M,,0000*66$GPGSA,A,3,29,21,05,16,25,06,23,30,31,,,,1.8,0.9,1.5*3D$GPRMC,000032.000,A,5117.6899,N,00008.6453,E,51.37,11.55,090411,,,A*62$PTTKT,STAT,0,0,0,0,0*6D
$GPGGA,000033.000,5117.7039,N,00008.6497,E,1,09,0.9,83.5,M,47.0,M,,0000*6A$GPGSA,A,3,29,21,05,16,25,06,23,30,31,,,,1.8,0.9,1.5*3D$GPRMC,000033.000,A,5117.7039,N,00008.6497,E,51.11,12.02,090411,,,A*6D$PTTKT,STAT,0,0,0,0,0*6D
$GPGGA,000034.000,5117.7179,N,00008.6542,E,1,09,0.9,83.7,M,47.0,M,,0000*63$GPGSA,A,3,29,21,05,16,25,06,23,30,31,,,,1.8,0.9,1.5*3D$GPGSV,3,1,11,30,62,293,43,21,53,151,36,31,43,209,21,29,43,067,45*77$GPGSV,3,2,11,16,39,297,42,25,23,120,40,06,20,253,28,05,14,046,49*7B$GPGSV,3,3,11,23,10,299,38,13,09,332,34,03,06,256,25*4D$GPRMC,000034.000,A,5117.7179,N,00008.6542,E,50.92,12.32,090411,,,A*6F$PTTKT,STAT,0,0,0,0,0*6D
$GPGGA,000035.000,5117.7318,N,00008.6588,E,1,09,0.9,84.0,M,47.0,M,,0000*61$GPGSA,A,3,29,21,05,16,25,06,23,30,31,,,,1.8,0.9,1.5*3D$GPRMC,000035.000,A,5117.7318,N,00008.6588,E,50.62,12.47,090411,,,A*60$GPGGA,000036.000,5117.7456,N,00008.6634,E,1,09,0.9,84.4,M,47.0,M,,0000*6F$GPGSA,A,3,29,21,05,16,25,06,23,30,31,,,,1.8,0.9,1.5*3D$GPRMC,000036.000,A,5117.7456,N,00008.6634,E,50.34,12.34,090411,,,A*6D$PTTKT,STAT,0,0,0,0,0*6D
$GPGGA,000037.000,5117.7593,N,00008.6678,E,1,09,0.9,84.8,M,47.0,M,,0000*62$GPGSA,A,3,29,21,05,16,25,06,23,30,31,,,,1.8,0.9,1.5*3D$GPRMC,000037.000,A,5117.7593,N,00008.6678,E,50.09,11.60,090411,,,A*60$PTTKT,STAT,0,0,0,0,0*6D
$GPGGA,000038.000,5117.7730,N,00008.6719,E,1,09,0.9,85.1,M,47.0,M,,0000*68$GPGSA,A,3,29,21,05,16,25,06,23,30,31,,,,1.8,0.9,1.5*3D$GPRMC,000038.000,A,5117.7730,N,00008.6719,E,49.78,10.81,090411,,,A*62$PTTKT,STAT,0,0,0,0,0*6D
$GPGGA,000039.000,5117.7866,N,00008.6758,E,1,09,0.9,85.5,M,47.0,M,,0000*64$GPGSA,A,3,29,21,05,16,25,06,23,30,31,,,,1.8,0.9,1.5*3D$GPGSV,3,1,11,30,62,293,42,21,53,151,35,31,43,209,15,29,43,067,45*72$GPGSV,3,2,11,16,39,297,43,25,23,120,41,06,20,253,29,05,14,046,49*7A$GPGSV,3,3,11,23,10,299,39,13,09,332,36,03,06,256,26*4D$GPRMC,000039.000,A,5117.7866,N,00008.6758,E,49.51,10.55,090411,,,A*68$GPGGA,000040.000,5117.8002,N,00008.6796,E,1,09,0.9,86.0,M,47.0,M,,0000*6B$GPGSA,A,3,29,21,05,16,25,06,23,30,31,,,,1.8,0.9,1.5*3D$GPRMC,000040.000,A,5117.8002,N,00008.6796,E,49.17,10.53,090411,,,A*65$PTTKT,STAT,0,0,0,0,0*6D
$GPGGA,000041.000,5117.8136,N,00008.6834,E,1,09,0.9,86.5,M,47.0,M,,0000*6E$GPGSA,A,3,29,21,05,16,25,06,23,30,31,,,,1.8,0.9,1.5*3D$GPRMC,000041.000,A,5117.8136,N,00008.6834,E,48.84,10.55,090411,,,A*68$PTTKT,STAT,0,0,0,0,0*6D
$GPGGA,000042.000,5117.8270,N,00008.6873,E,1,09,0.9,87.2,M,47.0,M,,0000*69$GPGSA,A,3,29,21,05,16,25,06,23,30,31,,,,1.8,0.9,1.5*3D$GPRMC,000042.000,A,5117.8270,N,00008.6873,E,48.68,10.90,090411,,,A*62$GPGGA,000043.000,5117.8403,N,00008.6912,E,1,09,0.9,87.9,M,47.0,M,,0000*67$GPGSA,A,3,29,21,05,16,25,06,23,30,31,,,,1.8,0.9,1.5*3D$GPRMC,000043.000,A,5117.8403,N,00008.6912,E,48.51,10.84,090411,,,A*68$PTTKT,STAT,0,0,0,0,0*6D
$GPGGA,000044.000,5117.8535,N,00008.6951,E,1,09,0.9,88.6,M,47.0,M,,0000*63$GPGSA,A,3,29,21,05,16,25,06,23,30,31,,,,1.8,0.9,1.5*3D$GPGSV,3,1,11,30,62,293,42,21,53,151,35,29,43,067,45,31,43,209,19*7E$GPGSV,3,2,11,16,39,297,43,25,22,120,40,06,21,253,31,05,14,046,49*72$GPGSV,3,3,11,23,10,299,40,13,09,332,36,03,06,257,27*43$GPRMC,000044.000,A,5117.8535,N,00008.6951,E,48.34,10.87,090411,,,A*6C$PTTKT,STAT,0,0,0,0,0*6D
$GPGGA,000045.000,5117.8667,N,00008.6991,E,1,09,0.9,89.4,M,47.0,M,,0000*69$GPGSA,A,3,29,21,05,16,25,06,23,30,31,,,,1.8,0.9,1.5*3D$GPRMC,000045.000,A,5117.8667,N,00008.6991,E,48.21,11.37,090411,,,A*6B$PTTKT,STAT,0,0,0,0,0*6D
$GPGGA,000046.000,5117.8799,N,00008.7033,E,1,09,0.9,90.2,M,47.0,M,,0000*64$GPGSA,A,3,29,21,05,16,25,06,23,30,31,,,,1.8,0.9,1.5*3D$GPRMC,000046.000,A,5117.8799,N,00008.7033,E,48.00,12.15,090411,,,A*68$GPGGA,000047.000,5117.8929,N,00008.7079,E,1,09,0.9,91.0,M,47.0,M,,0000*6D$GPGSA,A,3,29,21,05,16,25,06,23,30,31,,,,1.8,0.9,1.5*3D$GPRMC,000047.000,A,5117.8929,N,00008.7079,E,47.86,13.38,090411,,,A*6D$PTTKT,STAT,0,0,0,0,0*6D
$GPGGA,000048.000,5117.9058,N,00008.7130,E,1,09,0.9,91.8,M,47.0,M,,0000*68$GPGSA,A,3,29,21,05,16,25,06,23,30,31,,,,1.8,0.9,1.5*3D$GPRMC,000048.000,A,5117.9058,N,00008.7130,E,47.62,14.86,090411,,,A*68$PTTKT,STAT,0,0,0,0,0*6D
$GPGGA,000049.000,5117.9185,N,00008.7186,E,1,09,0.9,92.6,M,47.0,M,,0000*68$GPGSA,A,3,29,21,05,16,25,06,23,30,31,,,,1.8,0.9,1.5*3D$GPGSV,3,1,11,30,62,293,43,21,53,151,36,29,43,067,46,31,43,209,17*71$GPGSV,3,2,11,16,39,297,43,25,22,120,40,06,21,253,32,05,14,046,49*71$GPGSV,3,3,11,23,10,299,41,13,09,332,37,03,06,257,27*43$GPRMC,000049.000,A,5117.9185,N,00008.7186,E,47.52,16.44,090411,,,A*6A$PTTKT,STAT,0,0,0,0,0*6D
$GPGGA,000050.000,5117.9311,N,00008.7248,E,1,09,0.9,93.4,M,47.0,M,,0000*6D$GPGSA,A,3,29,21,05,16,25,06,23,30,31,,,,1.8,0.9,1.5*3D$GPRMC,000050.000,A,5117.9311,N,00008.7248,E,47.59,18.44,090411,,,A*69$PTTKT,STAT,0,0,0,0,0*6D
$GPGGA,000051.000,5117.9436,N,00008.7319,E,1,09,0.9,94.2,M,47.0,M,,0000*6A$GPGSA,A,3,29,21,05,16,25,06,23,30,31,,,,1.8,0.9,1.5*3D$GPRMC,000051.000,A,5117.9436,N,00008.7319,E,47.88,20.98,090411,,,A*69$GPGGA,000052.000,5117.9559,N,00008.7399,E,1,09,0.9,94.9,M,47.0,M,,0000*62$GPGSA,A,3,29,21,05,16,25,06,23,30,31,,,,1.8,0.9,1.5*3D$GPRMC,000052.000,A,5117.9559,N,00008.7399,E,48.28,23.62,090411,,,A*69$PTTKT,STAT,0,0,0,0,0*6D
$GPGGA,000053.000,5117.9682,N,00008.7489,E,1,09,0.9,95.6,M,47.0,M,,0000*6E$GPGSA,A,3,29,21,05,16,25,06,23,30,31,,,,1.8,0.9,1.5*3D$GPRMC,000053.000,A,5117.9682,N,00008.7489,E,48.78,26.17,090411,,,A*69$PTTKT,STAT,0,0,0,0,0*6D
$GPGGA,000054.000,5117.9802,N,00008.7589,E,1,09,0.9,96.3,M,47.0,M,,0000*68$GPGSA,A,3,29,21,05,16,25,06,23,30,31,,,,1.8,0.9,1.5*3D$GPGSV,3,1,11,30,62,293,42,21,53,151,40,29,43,067,45,31,43,209,31*76$GPGSV,3,2,11,16,39,297,37,25,22,120,41,06,21,253,35,05,14,046,47*7A$GPGSV,3,3,11,23,10,299,36,13,09,332,37,03,06,257,30*45$GPRMC,000054.000,A,5117.9802,N,00008.7589,E,49.28,28.73,090411,,,A*61$PTTKT,STAT,0,0,0,0,0*6D
$GPGGA,000055.000,5117.9921,N,00008.7698,E,1,09,0.9,96.9,M,47.0,M,,0000*60$GPGSA,A,3,29,21,05,16,25,06,23,30,31,,,,1.8,0.9,1.5*3D$GPRMC,000055.000,A,5117.9921,N,00008.7698,E,49.83,31.22,090411,,,A*6E$GPGGA,000056.000,5118.0039,N,00008.7817,E,1,09,0.9,97.5,M,47.0,M,,0000*61$GPGSA,A,3,29,21,05,16,25,06,23,30,31,,,,1.8,0.9,1.5*3D$GPRMC,000056.000,A,5118.0039,N,00008.7817,E,50.33,33.45,090411,,,A*62$PTTKT,STAT,0,0,0,0,0*6D
$PTTKT,STAT,0,0,0,0,0*6D
$PTTKT,STAT,0,0,0,0,0*6D
$PTTKT,STAT,0,0,0,0,0*6D
$PTTKT,STAT,0,0,0,0,0*6D
$PTTKT,STAT,0,0,0,0,0*6D
$PTTKT,STAT,0,0,0,0,0*6D
$GPGGA,000057.000,5118.0154,N,00008.7945,E,1,09,0.9,98.1,M,47.0,M,,0000*67$GPGSA,A,3,29,21,05,16,25,06,23,30,31,,,,1.8,0.9,1.5*3D$GPRMC,000057.000,A,5118.0154,N,00008.7945,E,50.80,36.09,090411,,,A*6A$GPGGA,000058.000,5118.0266,N,00008.8082,E,1,09,0.9,98.6,M,47.0,M,,0000*60$GPGSA,A,3,29,21,05,16,25,06,23,30,31,,,,1.8,0.9,1.5*3D$GPRMC,000058.000,A,5118.0266,N,00008.8082,E,51.29,38.84,090411,,,A*63$GPGGA,000059.000,5118.0374,N,00008.8230,E,1,09,0.9,99.2,M,47.0,M,,0000*6D$GPGSA,A,3,29,21,05,16,25,06,23,30,31,,,,1.8,0.9,1.5*3D$GPGSV,3,1,11,30,62,293,24,21,53,151,40,29,43,067,45,31,43,209,25*73$GPGSV,3,2,11,16,39,297,36,25,22,120,42,06,21,253,30,05,14,046,40*7A$GPGSV,3,3,11,23,10,299,28,13,09,332,29,03,06,257,20*44$GPRMC,000059.000,A,5118.0374,N,00008.8230,E,51.78,41.47,090411,,,A*6E$GPGGA,000100.000,5118.0480,N,00008.8385,E,1,09,0.9,99.6,M,47.0,M,,0000*67$GPGSA,A,3,29,21,05,16,25,06,23,30,31,,,,1.8,0.9,1.5*3D$GPRMC,000100.000,A,5118.0480,N,00008.8385,E,51.76,43.52,090411,,,A*68$GPGGA,000101.000,5118.0583,N,00008.8549,E,1,09,0.9,100.0,M,47.0,M,,0000*55$GPGSA,A,3,29,21,05,16,25,06,23,30,31,,,,1.8,0.9,1.5*3D$GPRMC,000101.000,A,5118.0583,N,00008.8549,E,52.89,46.03,090411,,,A*6F$GPGGA,000102.000,5118.0683,N,00008.8721,E,1,09,0.9,100.4,M,47.0,M,,0000*5D$GPGSA,A,3,29,21,05,16,25,06,23,30,31,,,,1.8,0.9,1.5*3D$GPRMC,000102.000,A,5118.0683,N,00008.8721,E,53.10,48.00,090411,,,A*6F$GPGGA,000103.000,5118.0778,N,00008.8901,E,1,09,0.9,100.5,M,47.0,M,,0000*54$GPGSA,A,3,29,21,05,16,25,06,23,30,31,,,,1.8,0.9,1.5*3D$GPRMC,000103.000,A,5118.0778,N,00008.8901,E,53.84,50.82,090411,,,A*69$GPGGA,000104.000,5118.0870,N,00008.9091,E,1,09,0.9,100.7,M,47.0,M,,0000*57$GPGSA,A,3,29,21,05,16,25,06,23,30,31,,,,1.8,0.9,1.5*3D$GPGSV,3,1,11,30,62,293,26,21,53,151,41,29,43,067,42,31,43,209,26*74$GPGSV,3,2,11,16,39,297,37,25,22,121,43,06,21,253,24,05,14,046,42*7C$GPGSV,3,3,11,23,10,299,27,13,09,332,28,03,06,257,17*4E$GPRMC,000104.000,A,5118.0870,N,00008.9091,E,54.37,52.59,090411,,,A*63$GPGGA,000105.000,5118.0960,N,00008.9285,E,1,09,0.9,100.7,M,47.0,M,,0000*51$GPGSA,A,3,29,21,05,16,25,06,23,30,31,,,,1.8,0.9,1.5*3D$GPRMC,000105.000,A,5118.0960,N,00008.9285,E,54.76,53.78,090411,,,A*62$GPGGA,000106.000,5118.1048,N,00008.9484,E,1,07,1.2,100.6,M,47.0,M,,0000*52$GPGSA,A,3,29,21,05,16,25,30,31,,,,,,2.7,1.2,2.4*3E$GPRMC,000106.000,A,5118.1048,N,00008.9484,E,55.22,55.25,090411,,,A*6A$GPGGA,000107.000,5118.1135,N,00008.9687,E,1,07,1.2,100.6,M,47.0,M,,0000*59$GPGSA,A,3,29,21,05,16,25,30,31,,,,,,2.7,1.2,2.4*3E$GPRMC,000107.000,A,5118.1135,N,00008.9687,E,55.51,55.63,090411,,,A*67$GPGGA,000108.000,5118.1221,N,00008.9890,E,1,07,1.2,100.5,M,47.0,M,,0000*5B$GPGGA,000110.000,5118.1395,N,00009.0297,E,1,07,1.2,100.3,M,47.0,M,,0000*5F$GPGSA,A,3,29,21,05,16,25,30,31,,,,,,2.7,1.2,2.4*3E$GPRMC,000110.000,A,5118.1395,N,00009.0297,E,55.53,55.34,090411,,,A*64$GPGGA,000111.000,5118.1483,N,00009.0499,E,1,07,1.2,100.1,M,47.0,M,,0000*54$GPGSA,A,3,29,21,05,16,25,30,31,,,,,,2.7,1.2,2.4*3E$GPRMC,000111.000,A,5118.1483,N,00009.0499,E,55.41,55.05,090411,,,A*6C$PTTKT,STAT,0,0,0,0,0*6D
$GPGGA,000112.000,5118.1570,N,00009.0701,E,1,08,1.0,100.0,M,47.0,M,,0000*54$GPGSA,A,3,29,21,05,16,25,23,30,31,,,,,1.9,1.0,1.6*31$GPRMC,000112.000,A,5118.1570,N,00009.0701,E,55.33,55.40,090411,,,A*64$GPGGA,000113.000,5118.1656,N,00009.0903,E,1,09,0.9,99.8,M,47.0,M,,0000*6E$GPGSA,A,3,29,21,05,16,25,06,23,30,31,,,,1.8,0.9,1.5*3D$GPRMC,000113.000,A,5118.1656,N,00009.0903,E,55.20,55.67,090411,,,A*69$PTTKT,STAT,0,0,0,0,0*6D
$GPGGA,000114.000,5118.1743,N,00009.1106,E,1,08,1.0,99.7,M,47.0,M,,0000*66$GPGSA,A,3,29,21,05,16,25,06,30,31,,,,,2.0,1.0,1.7*3D$GPGSV,3,1,11,30,62,293,34,21,53,151,41,29,43,067,43,31,43,209,22*72$GPGSV,3,2,11,16,39,297,42,25,22,121,47,06,21,253,22,05,14,046,44*7A$GPGSV,3,3,11,23,10,299,22,13,09,332,24,03,06,257,*41$GPRMC,000114.000,A,5118.1743,N,00009.1106,E,55.08,55.63,090411,,,A*69$PTTKT,STAT,0,0,0,0,0*6D
$GPGGA,000115.000,5118.1829,N,00009.1307,E,1,08,1.0,99.7,M,47.0,M,,0000*67$GPGSA,A,3,29,21,05,16,25,06,30,31,,,,,2.0,1.0,1.7*3D$GPRMC,000115.000,A,5118.1829,N,00009.1307,E,55.08,55.58,090411,,,A*60$PTTKT,STAT,0,0,0,0,0*6D
$GPGGA,000116.000,5118.1915,N,00009.1509,E,1,09,0.9,99.6,M,47.0,M,,0000*6A$GPGSA,A,3,29,21,05,16,25,06,23,30,31,,,,1.8,0.9,1.5*3D$GPRMC,000116.000,A,5118.1915,N,00009.1509,E,55.25,55.50,090411,,,A*62$GPGGA,000117.000,5118.2002,N,00009.1712,E,1,09,0.9,99.5,M,47.0,M,,0000*6C$GPGSA,A,3,29,21,05,16,25,06,23,30,31,,,,1.8,0.9,1.5*3D$GPRMC,000117.000,A,5118.2002,N,00009.1712,E,55.41,55.66,090411,,,A*60$PTTKT,STAT,0,0,0,0,0*6D
$GPGGA,000118.000,5118.2088,N,00009.1915,E,1,09,0.9,99.4,M,47.0,M,,0000*69$GPGSA,A,3,29,21,05,16,25,06,23,30,31,,,,1.8,0.9,1.5*3D$GPRMC,000118.000,A,5118.2088,N,00009.1915,E,55.51,55.47,090411,,,A*66$PTTKT,STAT,0,0,0,0,0*6D
$GPGGA,000119.000,5118.2177,N,00009.2117,E,1,08,1.0,99.0,M,47.0,M,,0000*6D$GPGSA,A,3,29,21,05,16,25,06,30,31,,,,,2.0,1.0,1.7*3D$GPGSV,3,1,11,30,62,293,34,21,53,150,38,29,43,067,41,31,43,209,22*7F$GPGSV,3,2,11,16,40,297,34,25,22,121,43,06,21,253,21,05,14,046,44*72$GPGSV,3,3,11,23,10,299,,13,09,332,,03,06,257,*47$GPRMC,000119.000,A,5118.2177,N,00009.2117,E,56.11,54.22,090411,,,A*6A$PTTKT,STAT,0,0,0,0,0*6D
$GPGGA,000120.000,5118.2268,N,00009.2319,E,1,07,1.2,98.9,M,47.0,M,,0000*63$GPGSA,A,3,29,21,05,16,25,30,31,,,,,,2.7,1.2,2.4*3E$GPRMC,000120.000,A,5118.2268,N,00009.2319,E,55.92,54.27,090411,,,A*6C$PTTKT,STAT,0,0,0,0,0*6D
$GPGGA,000121.000,5118.2359,N,00009.2520,E,1,08,1.0,98.8,M,47.0,M,,0000*61$GPGSA,A,3,29,21,05,16,25,06,30,31,,,,,2.0,1.0,1.7*3D$GPRMC,000121.000,A,5118.2359,N,00009.2520,E,56.05,53.50,090411,,,A*68$GPGGA,000122.000,5118.2453,N,00009.2718,E,1,08,1.0,98.6,M,47.0,M,,0000*68$GPGSA,A,3,29,21,05,16,25,06,30,31,,,,,2.0,1.0,1.7*3D$GPRMC,000122.000,A,5118.2453,N,00009.2718,E,56.20,52.41,090411,,,A*69$PTTKT,STAT,0,0,0,0,0*6D
$GPGGA,000123.000,5118.2549,N,00009.2914,E,1,08,1.0,98.5,M,47.0,M,,0000*62$GPGSA,A,3,29,21,05,16,25,06,30,31,,,,,2.0,1.0,1.7*3D$GPRMC,000123.000,A,5118.2549,N,00009.2914,E,56.40,51.18,090411,,,A*69$PTTKT,STAT,0,0,0,0,0*6D
$GPGGA,000124.000,5118.2649,N,00009.3107,E,1,08,1.0,98.4,M,47.0,M,,0000*6C$GPGSA,A,3,29,21,05,16,25,06,30,31,,,,,2.0,1.0,1.7*3D$GPGSV,3,1,11,30,62,293,34,21,53,150,40,29,43,067,43,31,43,209,27*77$GPGSV,3,2,11,16,40,297,42,25,22,121,47,06,21,253,27,05,14,046,44*71$GPGSV,3,3,11,23,10,299,,13,09,332,,03,06,257,*47$GPRMC,000124.000,A,5118.2649,N,00009.3107,E,56.52,49.86,090411,,,A*6B$PTTKT,STAT,0,0,0,0,0*6D
$GPGGA,000125.000,5118.2752,N,00009.3296,E,1,08,1.0,98.3,M,47.0,M,,0000*6A$GPGSA,A,3,29,21,05,16,25,06,30,31,,,,,2.0,1.0,1.7*3D$GPRMC,000125.000,A,5118.2752,N,00009.3296,E,56.66,47.85,090411,,,A*60$PTTKT,STAT,0,0,0,0,0*6D
$GPGGA,000126.000,5118.2859,N,00009.3480,E,1,08,1.0,98.2,M,47.0,M,,0000*6D$GPGSA,A,3,29,21,05,16,25,06,30,31,,,,,2.0,1.0,1.7*3D$GPRMC,000126.000,A,5118.2859,N,00009.3480,E,56.74,46.08,090411,,,A*61$GPGGA,000127.000,5118.2971,N,00009.3658,E,1,08,1.0,98.1,M,47.0,M,,0000*63$GPGSA,A,3,29,21,05,16,25,06,30,31,,,,,2.0,1.0,1.7*3D$GPRMC,000127.000,A,5118.2971,N,00009.3658,E,56.88,44.29,090411,,,A*6E$PTTKT,STAT,0,0,0,0,0*6D
$GPGGA,000128.000,5118.3085,N,00009.3831,E,1,08,1.0,98.0,M,47.0,M,,0000*6F$GPGSA,A,3,29,21,05,16,25,06,30,31,,,,,2.0,1.0,1.7*3D$GPRMC,000128.000,A,5118.3085,N,00009.3831,E,56.92,42.66,090411,,,A*65$PTTKT,STAT,0,0,0,0,0*6D
$GPGGA,000129.000,5118.3203,N,00009.3999,E,1,08,1.0,97.9,M,47.0,M,,0000*67$GPGSA,A,3,29,21,05,16,25,06,30,31,,,,,2.0,1.0,1.7*3D$GPGSV,3,1,11,30,62,293,35,21,53,150,40,29,43,067,43,31,43,209,33*73$GPGSV,3,2,11,16,40,297,34,25,22,121,45,06,21,253,30,05,14,046,39*7E$GPGSV,3,3,11,23,10,299,,13,09,332,30,03,06,257,*44$GPRMC,000129.000,A,5118.3203,N,00009.3999,E,57.02,40.91,090411,,,A*69$PTTKT,STAT,0,0,0,0,0*6D
$GPGGA,000130.000,5118.3325,N,00009.4162,E,1,07,1.1,97.9,M,47.0,M,,0000*6F$GPGSA,A,3,29,21,05,25,06,30,31,,,,,,2.1,1.1,1.7*3A$GPRMC,000130.000,A,5118.3325,N,00009.4162,E,57.09,39.31,090411,,,A*60$PTTKT,STAT,0,0,0,0,0*6D
$GPGGA,000131.000,5118.3449,N,00009.4319,E,1,09,0.9,97.8,M,47.0,M,,0000*6B$GPGSA,A,3,29,21,05,23,25,06,30,16,31,,,,1.8,0.9,1.5*3D$GPRMC,000131.000,A,5118.3449,N,00009.4319,E,57.13,37.77,090411,,,A*65$PTTKT,STAT,0,0,0,0,0*6D
$GPGGA,000132.000,5118.3576,N,00009.4471,E,1,09,0.9,97.8,M,47.0,M,,0000*6C$GPGSA,A,3,29,21,05,23,25,06,30,16,31,,,,1.8,0.9,1.5*3D$GPRMC,000132.000,A,5118.3576,N,00009.4471,E,57.18,36.14,090411,,,A*6D$GPGGA,000133.000,5118.3705,N,00009.4617,E,1,09,0.9,97.8,M,47.0,M,,0000*69$GPGSA,A,3,29,21,05,23,25,06,30,16,31,,,,1.8,0.9,1.5*3D$GPRMC,000133.000,A,5118.3705,N,00009.4617,E,57.18,34.59,090411,,,A*63$PTTKT,STAT,0,0,0,0,0*6D
$GPGGA,000134.000,5118.3837,N,00009.4757,E,1,09,0.9,97.9,M,47.0,M,,0000*64$GPGSA,A,3,29,21,05,23,25,06,30,16,31,,,,1.8,0.9,1.5*3D$GPGSV,3,1,11,30,62,293,42,21,53,150,40,29,43,067,43,31,43,209,24*75$GPGSV,3,2,11,16,40,297,32,25,22,121,44,06,21,253,31,05,14,046,41*77$GPGSV,3,3,11,23,10,299,25,13,09,332,25,03,06,257,*47$GPRMC,000134.000,A,5118.3837,N,00009.4757,E,57.20,33.02,090411,,,A*6D$PTTKT,STAT,0,0,0,0,0*6D
$GPGGA,000135.000,5118.3972,N,00009.4892,E,1,09,0.9,98.0,M,47.0,M,,0000*65$GPGSA,A,3,29,21,05,23,25,06,30,16,31,,,,1.8,0.9,1.5*3D$GPRMC,000135.000,A,5118.3972,N,00009.4892,E,57.21,31.58,090411,,,A*66$PTTKT,STAT,0,0,0,0,0*6D
$GPGGA,000136.000,5118.4108,N,00009.5021,E,1,09,0.9,98.0,M,47.0,M,,0000*65$GPGSA,A,3,29,21,05,23,25,06,30,16,31,,,,1.8,0.9,1.5*3D$GPRMC,000136.000,A,5118.4108,N,00009.5021,E,57.01,30.09,090411,,,A*61$GPGGA,000137.000,5118.4246,N,00009.5143,E,1,09,0.9,98.1,M,47.0,M,,0000*69$GPGSA,A,3,29,21,05,23,25,06,30,16,31,,,,1.8,0.9,1.5*3D$GPRMC,000137.000,A,5118.4246,N,00009.5143,E,56.69,28.21,090411,,,A*60$PTTKT,STAT,0,0,0,0,0*6D
$GPGGA,000138.000,5118.4386,N,00009.5258,E,1,08,1.0,98.2,M,47.0,M,,0000*68$GPGSA,A,3,29,21,05,25,06,30,16,31,,,,,2.0,1.0,1.7*3D$GPRMC,000138.000,A,5118.4386,N,00009.5258,E,56.36,26.53,090411,,,A*6A$PTTKT,STAT,0,0,0,0,0*6D
$GPGGA,000139.000,5118.4527,N,00009.5366,E,1,08,1.0,98.4,M,47.0,M,,0000*6E$GPGSA,A,3,29,21,05,25,06,30,16,31,,,,,2.0,1.0,1.7*3D$GPGSV,3,1,11,30,62,293,43,21,53,150,39,29,43,067,43,31,43,209,31*7E$GPGSV,3,2,11,16,40,297,34,25,22,121,41,06,21,253,28,05,14,046,46*7B$GPGSV,3,3,11,23,10,299,,13,09,332,,03,06,257,*47$GPRMC,000139.000,A,5118.4527,N,00009.5366,E,56.15,25.03,090411,,,A*6D$PTTKT,STAT,0,0,0,0,0*6D
$GPGGA,000140.000,5118.4669,N,00009.5466,E,1,08,1.0,98.6,M,47.0,M,,0000*6C$GPGSA,A,3,29,21,05,25,06,30,16,31,,,,,2.0,1.0,1.7*3D$GPRMC,000140.000,A,5118.4669,N,00009.5466,E,55.83,23.08,090411,,,A*6C$PTTKT,STAT,0,0,0,0,0*6D
$GPGGA,000141.000,5118.4812,N,00009.5558,E,1,07,1.2,98.8,M,47.0,M,,0000*60$GPGSA,A,3,29,21,05,25,30,16,31,,,,,,2.7,1.2,2.4*3E$GPRMC,000141.000,A,5118.4812,N,00009.5558,E,55.44,21.21,090411,,,A*61$GPGGA,000142.000,5118.4957,N,00009.5643,E,1,07,1.2,99.0,M,47.0,M,,0000*63$GPGSA,A,3,29,21,05,25,30,16,31,,,,,,2.7,1.2,2.4*3E$GPRMC,000142.000,A,5118.4957,N,00009.5643,E,55.30,19.60,090411,,,A*66$PTTKT,STAT,0,0,0,0,0*6D
$GPGGA,000143.000,5118.5102,N,00009.5719,E,1,07,1.2,99.0,M,47.0,M,,0000*65$GPGSA,A,3,29,21,05,25,30,16,31,,,,,,2.7,1.2,2.4*3E$GPRMC,000143.000,A,5118.5102,N,00009.5719,E,54.70,18.02,090411,,,A*60$PTTKT,STAT,0,0,0,0,0*6D
$GPGGA,000144.000,5118.5245,N,00009.5789,E,1,07,1.2,99.5,M,47.0,M,,0000*6E$GPGSA,A,3,29,21,05,25,30,16,31,,,,,,2.7,1.2,2.4*3E$GPGSV,3,1,11,30,62,293,43,21,53,150,34,29,43,067,44,31,43,209,32*77$GPGSV,3,2,11,16,40,297,41,25,22,121,36,06,21,253,16,05,14,046,43*71$GPGSV,3,3,11,23,10,299,,13,09,332,,03,06,257,*47$GPRMC,000144.000,A,5118.5245,N,00009.5789,E,52.57,16.90,090411,,,A*68$PTTKT,STAT,0,0,0,0,0*6D
$GPGGA,000145.000,5118.5389,N,00009.5849,E,1,07,1.2,99.4,M,47.0,M,,0000*6C$GPGSA,A,3,29,21,05,25,30,16,31,,,,,,2.7,1.2,2.4*3E$GPRMC,000145.000,A,5118.5389,N,00009.5849,E,54.37,14.25,090411,,,A*67$PTTKT,STAT,0,0,0,0,0*6D
$GPGGA,000146.000,5118.5535,N,00009.5903,E,1,07,1.2,99.5,M,47.0,M,,0000*60$GPGSA,A,3,29,21,05,25,30,16,31,,,,,,2.7,1.2,2.4*3E$GPRMC,000146.000,A,5118.5535,N,00009.5903,E,54.13,13.11,090411,,,A*6C$GPGGA,000147.000,5118.5683,N,00009.5952,E,1,06,1.5,99.6,M,47.0,M,,0000*6E$GPGSA,A,3,29,21,05,25,30,16,,,,,,,3.0,1.5,2.6*3F$GPRMC,000147.000,A,5118.5683,N,00009.5952,E,54.09,11.69,090411,,,A*61$PTTKT,STAT,0,0,0,0,0*6D
$GPGGA,000148.000,5118.5830,N,00009.5995,E,1,07,1.2,99.7,M,47.0,M,,0000*6B$GPGSA,A,3,29,21,05,25,30,16,31,,,,,,2.7,1.2,2.4*3E$GPRMC,000148.000,A,5118.5830,N,00009.5995,E,53.99,10.06,090411,,,A*65$PTTKT,STAT,0,0,0,0,0*6D
$GPGGA,000149.000,5118.5979,N,00009.6031,E,1,08,1.0,99.9,M,47.0,M,,0000*61$GPGSA,A,3,29,21,05,25,06,30,16,31,,,,,2.0,1.0,1.7*3D$GPGSV,3,1,11,30,62,293,43,21,53,150,34,29,43,067,45,31,43,209,19*7F$GPGSV,3,2,11,16,40,297,41,25,22,121,37,06,21,253,31,05,14,046,43*75$GPGSV,3,3,11,23,10,299,,13,09,332,30,03,06,257,*44$GPRMC,000149.000,A,5118.5979,N,00009.6031,E,53.78,8.40,090411,,,A*58$PTTKT,STAT,0,0,0,0,0*6D
$GPGGA,000150.000,5118.6127,N,00009.6059,E,1,08,1.0,99.6,M,47.0,M,,0000*68$GPGSA,A,3,29,21,05,25,06,30,16,31,,,,,2.0,1.0,1.7*3D$GPRMC,000150.000,A,5118.6127,N,00009.6059,E,53.94,7.01,090411,,,A*56$PTTKT,STAT,0,0,0,0,0*6D
$GPGGA,000151.000,5118.6276,N,00009.6083,E,1,08,1.0,99.5,M,47.0,M,,0000*6A$GPGSA,A,3,29,21,05,25,06,30,16,31,,,,,2.0,1.0,1.7*3D$GPRMC,000151.000,A,5118.6276,N,00009.6083,E,54.28,6.00,090411,,,A*57$GPGGA,000152.000,5118.6427,N,00009.6102,E,1,08,1.0,99.3,M,47.0,M,,0000*65$GPGSA,A,3,29,21,05,25,06,30,16,31,,,,,2.0,1.0,1.7*3D$GPRMC,000152.000,A,5118.6427,N,00009.6102,E,54.56,4.68,090411,,,A*5B$PTTKT,STAT,0,0,0,0,0*6D
$GPGGA,000153.000,5118.6578,N,00009.6116,E,1,08,1.0,99.2,M,47.0,M,,0000*6B$GPGSA,A,3,29,21,05,25,06,30,16,31,,,,,2.0,1.0,1.7*3D$GPRMC,000153.000,A,5118.6578,N,00009.6116,E,54.67,3.05,090411,,,A*5A$PTTKT,STAT,0,0,0,0,0*6D
$GPGGA,000154.000,5118.6730,N,00009.6121,E,1,08,1.0,99.2,M,47.0,M,,0000*66$GPGSA,A,3,29,21,05,25,06,30,16,31,,,,,2.0,1.0,1.7*3D$GPGSV,3,1,11,30,62,293,42,21,53,150,34,29,43,067,47,31,43,209,25*73$GPGSV,3,2,11,16,40,297,41,25,22,121,37,06,21,253,35,05,14,046,48*7A$GPGSV,3,3,11,23,10,299,25,13,09,332,33,03,06,257,*40$GPRMC,000154.000,A,5118.6730,N,00009.6121,E,54.66,0.80,090411,,,A*58$GPGGA,000155.000,5118.6881,N,00009.6117,E,1,08,1.0,99.2,M,47.0,M,,0000*67$GPGSA,A,3,29,21,05,25,06,30,16,31,,,,,2.0,1.0,1.7*3D$GPRMC,000155.000,A,5118.6881,N,00009.6117,E,54.70,358.70,090411,,,A*5F$PTTKT,STAT,0,0,0,0,0*6D
$GPGGA,000156.000,5118.7033,N,00009.6107,E,1,09,0.9,99.3,M,47.0,M,,0000*6D$GPGSA,A,3,29,21,05,25,06,23,30,16,31,,,,1.8,0.9,1.5*3D$GPRMC,000156.000,A,5118.7033,N,00009.6107,E,54.79,357.42,090411,,,A*5A$PTTKT,STAT,0,0,0,0,0*6D
$GPGGA,000157.000,5118.7185,N,00009.6092,E,1,09,0.9,99.3,M,47.0,M,,0000*6D$GPGSA,A,3,29,21,05,25,06,23,30,16,31,,,,1.8,0.9,1.5*3D$GPRMC,000157.000,A,5118.7185,N,00009.6092,E,54.78,356.44,090411,,,A*5C$PTTKT,STAT,0,0,0,0,0*6D
$GPGGA,000158.000,5118.7337,N,00009.6072,E,1,09,0.9,99.4,M,47.0,M,,0000*60$GPGSA,A,3,29,21,05,25,06,23,30,16,31,,,,1.8,0.9,1.5*3D$GPRMC,000158.000,A,5118.7337,N,00009.6072,E,55.04,355.18,090411,,,A*56$GPGGA,000159.000,5118.7489,N,00009.6048,E,1,09,0.9,99.5,M,47.0,M,,0000*6B$GPGSA,A,3,29,21,05,25,06,23,30,16,31,,,,1.8,0.9,1.5*3D$GPGSV,3,1,11,30,62,293,42,21,53,150,23,29,43,067,47,31,43,209,35*74$GPGSV,3,2,11,16,40,297,24,25,22,121,37,06,21,253,36,05,14,046,48*7A$GPGSV,3,3,11,23,10,299,28,13,09,332,35,03,06,257,*4B$GPRMC,000159.000,A,5118.7489,N,00009.6048,E,55.16,354.32,090411,,,A*56$PTTKT,STAT,0,0,0,0,0*6D
$GPGGA,000200.000,5118.7641,N,00009.6020,E,1,09,0.9,99.6,M,47.0,M,,0000*6F$GPGSA,A,3,29,21,05,25,06,23,30,16,31,,,,1.8,0.9,1.5*3D$GPRMC,000200.000,A,5118.7641,N,00009.6020,E,55.28,353.46,090411,,,A*58$PTTKT,STAT,0,0,0,0,0*6D
$GPGGA,000201.000,5118.7793,N,00009.5988,E,1,08,1.0,99.7,M,47.0,M,,0000*60$GPGSA,A,3,29,21,05,25,06,30,16,31,,,,,2.0,1.0,1.7*3D$GPRMC,000201.000,A,5118.7793,N,00009.5988,E,55.38,352.68,090411,,,A*53$GPGGA,000202.000,5118.7946,N,00009.5953,E,1,08,1.0,99.9,M,47.0,M,,0000*6D$GPGSA,A,3,29,21,05,25,06,30,16,31,,,,,2.0,1.0,1.7*3D$GPRMC,000202.000,A,5118.7946,N,00009.5953,E,55.43,351.90,090411,,,A*58$PTTKT,STAT,0,0,0,0,0*6D
$GPGGA,000203.000,5118.8099,N,00009.5915,E,1,08,1.0,100.2,M,47.0,M,,0000*50$GPGSA,A,3,29,21,05,25,06,30,16,31,,,,,2.0,1.0,1.7*3D$GPRMC,000203.000,A,5118.8099,N,00009.5915,E,55.42,351.43,090411,,,A*50$PTTKT,STAT,0,0,0,0,0*6D
$GPGGA,000204.000,5118.8251,N,00009.5876,E,1,08,1.0,100.4,M,47.0,M,,0000*53$GPGSA,A,3,29,21,05,25,06,30,16,31,,,,,2.0,1.0,1.7*3D$GPGSV,3,1,11,30,62,293,41,21,53,150,29,29,43,067,46,31,43,209,33*7A$GPGSV,3,2,11,16,40,297,24,25,22,121,33,06,21,253,37,05,14,046,49*7E$GPGSV,3,3,11,23,10,299,,13,09,332,42,03,06,257,*41$GPRMC,000204.000,A,5118.8251,N,00009.5876,E,55.49,351.07,090411,,,A*5E$GPGGA,000205.000,5118.8404,N,00009.5835,E,1,08,1.0,100.7,M,47.0,M,,0000*50$GPGSA,A,3,29,21,05,25,06,30,16,31,,,,,2.0,1.0,1.7*3D$GPRMC,000205.000,A,5118.8404,N,00009.5835,E,55.57,350.69,090411,,,A*58$PTTKT,STAT,0,0,0,0,0*6D
$GPGGA,000206.000,5118.8556,N,00009.5793,E,1,08,1.0,101.0,M,47.0,M,,0000*50$GPGSA,A,3,29,21,05,25,06,30,16,31,,,,,2.0,1.0,1.7*3D$GPRMC,000206.000,A,5118.8556,N,00009.5793,E,55.52,350.45,090411,,,A*55$PTTKT,STAT,0,0,0,0,0*6D
$GPGGA,000207.000,5118.8709,N,00009.5751,E,1,08,1.0,101.3,M,47.0,M,,0000*54$GPGSA,A,3,29,21,05,25,06,30,16,31,,,,,2.0,1.0,1.7*3D$GPRMC,000207.000,A,5118.8709,N,00009.5751,E,55.40,350.67,090411,,,A*51$GPGGA,000208.000,5118.8861,N,00009.5711,E,1,08,1.0,101.8,M,47.0,M,,0000*55$GPGSA,A,3,29,21,05,25,06,30,16,31,,,,,2.0,1.0,1.7*3D$GPRMC,000208.000,A,5118.8861,N,00009.5711,E,55.28,351.47,090411,,,A*56$PTTKT,STAT,0,0,0,0,0*6D
$GPGGA,000209.000,5118.9013,N,00009.5674,E,1,08,1.0,102.2,M,47.0,M,,0000*53$GPGSA,A,3,29,21,05,25,06,30,16,31,,,,,2.0,1.0,1.7*3D$GPGSV,3,1,11,30,62,293,40,21,53,150,29,29,43,067,46,31,43,209,30*78$GPGSV,3,2,11,16,40,297,26,25,22,121,32,06,21,253,38,05,14,046,49*72$GPGSV,3,3,11,23,10,299,,13,09,332,27,03,06,257,*42$GPRMC,000209.000,A,5118.9013,N,00009.5674,E,55.16,351.77,090411,,,A*57$PTTKT,STAT,0,0,0,0,0*6D
$GPGGA,000210.000,5118.9165,N,00009.5639,E,1,08,1.0,102.8,M,47.0,M,,0000*58$GPGSA,A,3,29,21,05,25,06,30,16,31,,,,,2.0,1.0,1.7*3D$GPRMC,000210.000,A,5118.9165,N,00009.5639,E,54.88,352.15,090411,,,A*57$PTTKT,STAT,0,0,0,0,0*6D
$GPGGA,000211.000,5118.9316,N,00009.5605,E,1,08,1.0,103.4,M,47.0,M,,0000*5D$GPGSA,A,3,29,21,05,25,06,30,16,31,,,,,2.0,1.0,1.7*3D$GPRMC,000211.000,A,5118.9316,N,00009.5605,E,54.70,352.81,090411,,,A*55$GPGGA,000212.000,5118.9468,N,00009.5574,E,1,08,1.0,104.1,M,47.0,M,,0000*57$GPGSA,A,3,29,21,05,25,06,30,16,31,,,,,2.0,1.0,1.7*3D$GPRMC,000212.000,A,5118.9468,N,00009.5574,E,54.69,353.01,090411,,,A*5C$PTTKT,STAT,0,0,0,0,0*6D
$GPGGA,000213.000,5118.9619,N,00009.5544,E,1,08,1.0,104.9,M,47.0,M,,0000*59$GPGSA,A,3,29,21,05,25,06,30,16,31,,,,,2.0,1.0,1.7*3D$GPRMC,000213.000,A,5118.9619,N,00009.5544,E,54.45,353.43,090411,,,A*52$PTTKT,STAT,0,0,0,0,0*6D
$GPGGA,000214.000,5118.9769,N,00009.5516,E,1,08,1.0,105.7,M,47.0,M,,0000*50$GPGSA,A,3,29,21,05,25,06,30,16,31,,,,,2.0,1.0,1.7*3D$GPGSV,3,1,11,30,63,293,39,21,53,150,21,29,42,067,46,31,42,209,32*7D$GPGSV,3,2,11,16,40,297,30,25,22,121,33,06,21,254,38,05,14,045,49*70$GPGSV,3,3,11,23,10,298,,13,09,332,22,03,07,257,*47$GPRMC,000214.000,A,5118.9769,N,00009.5516,E,54.22,353.73,090411,,,A*56$GPGGA,000215.000,5118.9919,N,00009.5489,E,1,08,1.0,106.5,M,47.0,M,,0000*5E$GPGSA,A,3,29,21,05,25,06,30,16,31,,,,,2.0,1.0,1.7*3D$GPRMC,000215.000,A,5118.9919,N,00009.5489,E,54.13,354.28,090411,,,A*52$GPGGA,000216.000,5119.0070,N,00009.5465,E,1,08,1.0,107.5,M,47.0,M,,0000*50$GPGSA,A,3,29,21,05,25,06,30,16,31,,,,,2.0,1.0,1.7*3D$GPRMC,000216.000,A,5119.0070,N,00009.5465,E,54.28,354.65,090411,,,A*5C$PTTKT,STAT,0,0,0,0,0*6D
$GPGGA,000217.000,5119.0221,N,00009.5442,E,1,08,1.0,108.4,M,47.0,M,,0000*5C$GPGSA,A,3,29,21,05,25,06,30,16,31,,,,,2.0,1.0,1.7*3D$GPRMC,000217.000,A,5119.0221,N,00009.5442,E,54.35,355.00,090411,,,A*50$PTTKT,STAT,0,0,0,0,0*6D
$GPGGA,000218.000,5119.0372,N,00009.5421,E,1,08,1.0,109.5,M,47.0,M,,0000*51$GPGSA,A,3,29,21,05,25,06,30,16,31,,,,,2.0,1.0,1.7*3D$GPRMC,000218.000,A,5119.0372,N,00009.5421,E,54.37,355.51,090411,,,A*5B$PTTKT,STAT,0,0,0,0,0*6D
$GPGGA,000219.000,5119.0523,N,00009.5402,E,1,08,1.0,110.6,M,47.0,M,,0000*58$GPGSA,A,3,29,21,05,25,06,30,16,31,,,,,2.0,1.0,1.7*3D$GPGSV,3,1,11,30,63,293,39,21,53,150,29,29,42,067,47,31,42,209,33*75$GPGSV,3,2,11,16,40,297,31,25,22,121,33,06,21,254,38,05,14,045,49*71$GPGSV,3,3,11,23,10,298,,13,09,332,,03,07,257,*47$GPRMC,000219.000,A,5119.0523,N,00009.5402,E,54.45,356.01,090411,,,A*5A$PTTKT,STAT,0,0,0,0,0*6D
$GPGGA,000220.000,5119.0673,N,00009.5385,E,1,07,1.2,111.7,M,47.0,M,,0000*51$GPGSA,A,3,29,21,05,25,30,16,31,,,,,,2.7,1.2,2.4*3E$GPRMC,000220.000,A,5119.0673,N,00009.5385,E,54.33,356.26,090411,,,A*5A$GPGGA,000221.000,5119.0824,N,00009.5369,E,1,08,1.0,113.0,M,47.0,M,,0000*56$GPGSA,A,3,29,21,05,06,25,30,16,31,,,,,2.0,1.0,1.7*3D$GPRMC,000221.000,A,5119.0824,N,00009.5369,E,54.32,356.61,090411,,,A*57$PTTKT,STAT,0,0,0,0,0*6D
$GPGGA,000222.000,5119.0975,N,00009.5355,E,1,08,1.0,114.2,M,47.0,M,,0000*5A$GPGSA,A,3,29,21,05,06,25,30,16,31,,,,,2.0,1.0,1.7*3D$GPRMC,000222.000,A,5119.0975,N,00009.5355,E,54.32,356.95,090411,,,A*55$PTTKT,STAT,0,0,0,0,0*6D
$GPGGA,000223.000,5119.1125,N,00009.5342,E,1,07,1.2,115.3,M,47.0,M,,0000*5C$GPGSA,A,3,29,21,05,25,30,16,31,,,,,,2.7,1.2,2.4*3E$GPRMC,000223.000,A,5119.1125,N,00009.5342,E,54.18,357.22,090411,,,A*5B$GPGGA,000224.000,5119.1274,N,00009.5331,E,1,07,1.2,116.5,M,47.0,M,,0000*5D$GPGSA,A,3,29,21,05,25,30,16,31,,,,,,2.7,1.2,2.4*3E$GPGSV,3,1,11,30,63,293,39,21,53,150,28,29,42,067,47,31,42,209,34*73$GPGSV,3,2,11,16,40,297,32,25,22,121,35,06,21,254,,05,14,045,49*7F$GPGSV,3,3,11,23,10,298,,13,09,332,,03,07,257,*47$GPRMC,000224.000,A,5119.1274,N,00009.5331,E,53.88,357.56,090411,,,A*52$PTTKT,STAT,0,0,0,0,0*6D
$GPGGA,000225.000,5119.1424,N,00009.5321,E,1,07,1.2,117.7,M,47.0,M,,0000*5D$GPGSA,A,3,29,21,05,25,30,16,31,,,,,,2.7,1.2,2.4*3E$GPRMC,000225.000,A,5119.1424,N,00009.5321,E,53.64,358.11,090411,,,A*5F$PTTKT,STAT,0,0,0,0,0*6D
$GPGGA,000226.000,5119.1572,N,00009.5314,E,1,07,1.2,118.9,M,47.0,M,,0000*5B$GPGSA,A,3,29,21,05,25,30,16,31,,,,,,2.7,1.2,2.4*3E$GPRMC,000226.000,A,5119.1572,N,00009.5314,E,53.43,358.63,090411,,,A*58$PTTKT,STAT,0,0,0,0,0*6D
$GPGGA,000227.000,5119.1721,N,00009.5309,E,1,07,1.2,120.1,M,47.0,M,,0000*51$GPGSA,A,3,29,21,05,25,30,16,31,,,,,,2.7,1.2,2.4*3E$GPRMC,000227.000,A,5119.1721,N,00009.5309,E,53.29,359.07,090411,,,A*5E$GPGGA,000228.000,5119.1869,N,00009.5306,E,1,07,1.2,121.3,M,47.0,M,,0000*51$GPGSA,A,3,29,21,05,25,30,16,31,,,,,,2.7,1.2,2.4*3E$GPRMC,000228.000,A,5119.1869,N,00009.5306,E,53.21,359.45,090411,,,A*53$PTTKT,STAT,0,0,0,0,0*6D
$GPGGA,000229.000,5119.2017,N,00009.5304,E,1,07,1.2,122.5,M,47.0,M,,0000*55$GPGSA,A,3,29,21,05,25,30,16,31,,,,,,2.7,1.2,2.4*3E$GPGSV,3,1,11,30,63,293,40,21,53,150,29,29,42,067,48,31,42,209,33*74$GPGSV,3,2,11,16,40,297,36,25,22,121,36,06,21,254,21,05,14,045,49*7B$GPGSV,3,3,11,23,10,298,,13,09,332,,03,07,257,*47$GPRMC,000229.000,A,5119.2017,N,00009.5304,E,53.22,359.67,090411,,,A*51$PTTKT,STAT,0,0,0,0,0*6D
$GPGGA,000230.000,5119.2165,N,00009.5303,E,1,07,1.2,123.7,M,47.0,M,,0000*5D$GPGSA,A,3,29,21,05,25,30,16,31,,,,,,2.7,1.2,2.4*3E$GPRMC,000230.000,A,5119.2165,N,00009.5303,E,53.26,359.94,090411,,,A*52$PTTKT,STAT,0,0,0,0,0*6D
$GPGGA,000231.000,5119.2313,N,00009.5303,E,1,07,1.2,124.9,M,47.0,M,,0000*56$GPGSA,A,3,29,21,05,25,30,16,31,,,,,,2.7,1.2,2.4*3E$GPRMC,000231.000,A,5119.2313,N,00009.5303,E,53.21,0.29,090411,,,A*5E$GPGGA,000232.000,5119.2461,N,00009.5306,E,1,07,1.2,126.1,M,47.0,M,,0000*58$GPGSA,A,3,29,21,05,25,30,16,31,,,,,,2.7,1.2,2.4*3E$GPRMC,000232.000,A,5119.2461,N,00009.5306,E,53.33,0.88,090411,,,A*52$PTTKT,STAT,0,0,0,0,0*6D
$GPGGA,000233.000,5119.2610,N,00009.5310,E,1,07,1.2,127.4,M,47.0,M,,0000*5E$GPGSA,A,3,29,21,05,25,30,16,31,,,,,,2.7,1.2,2.4*3E$GPRMC,000233.000,A,5119.2610,N,00009.5310,E,53.44,1.36,090411,,,A*54$PTTKT,STAT,0,0,0,0,0*6D
$GPGGA,000234.000,5119.2758,N,00009.5317,E,1,07,1.2,128.6,M,47.0,M,,0000*5E$GPGSA,A,3,29,21,05,25,30,16,31,,,,,,2.7,1.2,2.4*3E$GPGSV,3,1,11,30,63,293,41,21,54,150,30,29,42,068,48,31,42,208,22*74$GPGSV,3,2,11,16,40,297,37,25,22,121,38,06,21,254,,05,14,045,48*76$GPGSV,3,3,11,23,10,298,,13,09,331,,03,07,257,*44$GPRMC,000234.000,A,5119.2758,N,00009.5317,E,53.47,2.12,090411,,,A*5F$PTTKT,STAT,0,0,0,0,0*6D
$GPGGA,000235.000,5119.2907,N,00009.5328,E,1,07,1.2,129.7,M,47.0,M,,0000*57$GPGSA,A,3,29,21,05,25,30,16,31,,,,,,2.7,1.2,2.4*3E$GPRMC,000235.000,A,5119.2907,N,00009.5328,E,53.55,2.94,090411,,,A*5B$PTTKT,STAT,0,0,0,0,0*6D
$GPGGA,000236.000,5119.3055,N,00009.5342,E,1,07,1.2,130.9,M,47.0,M,,0000*51$GPGSA,A,3,29,21,05,25,30,16,31,,,,,,2.7,1.2,2.4*3E$GPRMC,000236.000,A,5119.3055,N,00009.5342,E,53.40,4.07,090411,,,A*53$GPGGA,000237.000,5119.3204,N,00009.5361,E,1,07,1.2,132.1,M,47.0,M,,0000*5D$GPGSA,A,3,29,21,05,25,30,16,31,,,,,,2.7,1.2,2.4*3E$GPRMC,000237.000,A,5119.3204,N,00009.5361,E,53.66,4.82,090411,,,A*5C$PTTKT,STAT,0,0,0,0,0*6D
$GPGGA,000238.000,5119.3353,N,00009.5380,E,1,06,1.3,133.2,M,47.0,M,,0000*5C$GPGSA,A,3,29,21,25,30,16,31,,,,,,,3.3,1.3,3.0*3A$GPRMC,000238.000,A,5119.3353,N,00009.5380,E,54.08,4.55,090411,,,A*5A$PTTKT,STAT,0,0,0,0,0*6D
$GPGGA,000239.000,5119.3504,N,00009.5398,E,1,06,1.3,134.4,M,47.0,M,,0000*51$GPGSA,A,3,29,21,25,30,16,31,,,,,,,3.3,1.3,3.0*3A$GPGSV,3,1,11,30,63,293,41,21,54,150,32,29,42,068,47,31,42,208,29*72$GPGSV,3,2,11,16,40,297,42,25,22,121,38,06,21,254,,05,14,045,22*78$GPGSV,3,3,11,23,10,298,,13,09,331,,03,07,257,*44$GPRMC,000239.000,A,5119.3504,N,00009.5398,E,54.56,4.28,090411,,,A*57$PTTKT,STAT,0,0,0,0,0*6D
$GPGGA,000240.000,5119.3657,N,00009.5417,E,1,06,1.3,135.4,M,47.0,M,,0000*5B$GPGSA,A,3,29,21,25,30,16,31,,,,,,,3.3,1.3,3.0*3A$GPRMC,000240.000,A,5119.3657,N,00009.5417,E,55.15,4.53,090411,,,A*56$GPGGA,000241.000,5119.3810,N,00009.5436,E,1,06,1.3,136.5,M,47.0,M,,0000*56$GPGSA,A,3,29,21,25,30,16,31,,,,,,,3.3,1.3,3.0*3A$GPRMC,000241.000,A,5119.3810,N,00009.5436,E,55.49,4.65,090411,,,A*55$PTTKT,STAT,0,0,0,0,0*6D
$GPGGA,000242.000,5119.3964,N,00009.5457,E,1,06,1.3,137.6,M,47.0,M,,0000*52$GPGSA,A,3,29,21,25,30,16,31,,,,,,,3.3,1.3,3.0*3A$GPRMC,000242.000,A,5119.3964,N,00009.5457,E,55.77,4.92,090411,,,A*56$PTTKT,STAT,0,0,0,0,0*6D
$GPGGA,000243.000,5119.4120,N,00009.5479,E,1,05,1.4,138.6,M,47.0,M,,0000*5B$GPGSA,A,3,29,21,30,16,31,,,,,,,,5.1,1.4,4.9*30$GPRMC,000243.000,A,5119.4120,N,00009.5479,E,56.20,5.36,090411,,,A*5A$PTTKT,STAT,0,0,0,0,0*6D
$GPGGA,000244.000,5119.4276,N,00009.5503,E,1,05,1.4,139.5,M,47.0,M,,0000*52$GPGSA,A,3,29,21,30,16,31,,,,,,,,5.1,1.4,4.9*30$GPGSV,3,1,11,30,63,293,41,21,54,150,32,29,42,068,47,31,42,208,29*72$GPGSV,3,2,11,16,40,297,42,25,22,121,,06,21,254,19,05,14,045,20*79$GPGSV,3,3,11,23,10,298,,13,09,331,,03,07,257,*44$GPRMC,000244.000,A,5119.4276,N,00009.5503,E,56.74,5.55,090411,,,A*55$GPGGA,000245.000,5119.4434,N,00009.5527,E,1,05,1.4,140.5,M,47.0,M,,0000*5B$GPGSA,A,3,29,21,30,16,31,,,,,,,,5.1,1.4,4.9*30$GPRMC,000245.000,A,5119.4434,N,00009.5527,E,56.97,5.43,090411,,,A*58$PTTKT,STAT,0,0,0,0,0*6D
$GPGGA,000246.000,5119.4592,N,00009.5551,E,1,05,1.4,141.4,M,47.0,M,,0000*54$GPGSA,A,3,29,21,30,16,31,,,,,,,,5.1,1.4,4.9*30$GPRMC,000246.000,A,5119.4592,N,00009.5551,E,57.22,5.47,090411,,,A*5C$PTTKT,STAT,0,0,0,0,0*6D
$GPGGA,000247.000,5119.4751,N,00009.5574,E,1,06,1.4,142.3,M,47.0,M,,0000*58$GPGSA,A,3,29,21,05,30,16,31,,,,,,,3.0,1.4,2.7*3A$GPRMC,000247.000,A,5119.4751,N,00009.5574,E,57.67,5.24,090411,,,A*53$PTTKT,STAT,0,0,0,0,0*6D
$GPGGA,000248.000,5119.4912,N,00009.5597,E,1,07,1.2,143.2,M,47.0,M,,0000*54$GPGSA,A,3,29,21,05,25,30,16,31,,,,,,2.6,1.2,2.4*3F$GPRMC,000248.000,A,5119.4912,N,00009.5597,E,58.26,4.76,090411,,,A*54$PTTKT,STAT,0,0,0,0,0*6D
$GPGGA,000249.000,5119.5074,N,00009.5616,E,1,07,1.2,144.1,M,47.0,M,,0000*53$GPGSA,A,3,29,21,05,25,30,16,31,,,,,,2.6,1.2,2.4*3F$GPGSV,3,1,11,30,63,293,41,21,54,150,33,29,42,068,48,31,42,208,28*7D$GPGSV,3,2,11,16,40,297,42,25,22,121,27,06,21,254,18,05,14,045,33*7F$GPGSV,3,3,11,23,10,298,,13,09,331,,03,07,257,*44$GPRMC,000249.000,A,5119.5074,N,00009.5616,E,58.55,4.07,090411,,,A*55$GPGGA,000250.000,5119.5238,N,00009.5633,E,1,07,1.2,144.8,M,47.0,M,,0000*5F$GPGSA,A,3,29,21,05,25,30,16,31,,,,,,2.6,1.2,2.4*3F$GPRMC,000250.000,A,5119.5238,N,00009.5633,E,58.95,3.43,090411,,,A*5B$PTTKT,STAT,0,0,0,0,0*6D
$GPGGA,000251.000,5119.5401,N,00009.5647,E,1,07,1.2,145.5,M,47.0,M,,0000*5D$GPGSA,A,3,29,21,05,25,30,16,31,,,,,,2.6,1.2,2.4*3F$GPRMC,000251.000,A,5119.5401,N,00009.5647,E,59.11,2.60,090411,,,A*58$PTTKT,STAT,0,0,0,0,0*6D
$GPGGA,000252.000,5119.5565,N,00009.5657,E,1,07,1.2,146.1,M,47.0,M,,0000*5B$GPGSA,A,3,29,21,05,25,30,16,31,,,,,,2.6,1.2,2.4*3F$GPRMC,000252.000,A,5119.5565,N,00009.5657,E,59.21,2.09,090411,,,A*55$PTTKT,STAT,0,0,0,0,0*6D
$GPGGA,000253.000,5119.5730,N,00009.5665,E,1,07,1.2,146.8,M,47.0,M,,0000*50$GPGSA,A,3,29,21,05,25,30,16,31,,,,,,2.6,1.2,2.4*3F$GPRMC,000253.000,A,5119.5730,N,00009.5665,E,59.24,1.62,090411,,,A*5C$PTTKT,STAT,0,0,0,0,0*6D
$GPGGA,000254.000,5119.5894,N,00009.5670,E,1,07,1.2,147.5,M,47.0,M,,0000*5E$GPGSA,A,3,29,21,05,25,30,16,31,,,,,,2.6,1.2,2.4*3F$GPGSV,3,1,11,30,63,293,41,21,54,150,32,29,42,068,48,31,42,208,22*76$GPGSV,3,2,11,16,40,297,42,25,22,121,38,06,21,254,19,05,14,045,45*71$GPGSV,3,3,11,23,10,298,,13,09,331,,03,07,257,*44$GPRMC,000254.000,A,5119.5894,N,00009.5670,E,59.15,0.88,090411,,,A*59$GPGGA,000255.000,5119.6059,N,00009.5672,E,1,07,1.2,148.2,M,47.0,M,,0000*5F$GPGSA,A,3,29,21,05,25,30,16,31,,,,,,2.6,1.2,2.4*3F$GPRMC,000255.000,A,5119.6059,N,00009.5672,E,59.17,359.98,090411,,,A*5C$PTTKT,STAT,0,0,0,0,0*6D
$GPGGA,000256.000,5119.6223,N,00009.5670,E,1,07,1.2,148.7,M,47.0,M,,0000*54$GPGSA,A,3,29,21,05,25,30,16,31,,,,,,2.6,1.2,2.4*3F$GPRMC,000256.000,A,5119.6223,N,00009.5670,E,59.16,359.46,090411,,,A*50$PTTKT,STAT,0,0,0,0,0*6D
$GPGGA,000257.000,5119.6387,N,00009.5665,E,1,07,1.2,149.3,M,47.0,M,,0000*5B$GPGSA,A,3,29,21,05,25,30,16,31,,,,,,2.6,1.2,2.4*3F$GPRMC,000257.000,A,5119.6387,N,00009.5665,E,59.27,358.77,090411,,,A*5B$GPGGA,000258.000,5119.6552,N,00009.5657,E,1,07,1.2,149.8,M,47.0,M,,0000*50$GPGSA,A,3,29,21,05,25,30,16,31,,,,,,2.6,1.2,2.4*3F$GPRMC,000258.000,A,5119.6552,N,00009.5657,E,59.52,358.15,090411,,,A*5D$PTTKT,STAT,0,0,0,0,0*6D
$GPGGA,000259.000,5119.6718,N,00009.5645,E,1,08,1.0,149.9,M,47.0,M,,0000*52$GPGSA,A,3,29,21,05,25,23,30,16,31,,,,,1.9,1.0,1.6*31$GPGSV,3,1,11,30,63,293,41,21,54,150,29,29,42,068,48,31,42,208,30*7F$GPGSV,3,2,11,16,40,297,36,25,22,121,38,06,21,254,,05,14,045,46*79$GPGSV,3,3,11,23,10,298,40,13,09,331,34,03,07,257,*47$GPRMC,000259.000,A,5119.6718,N,00009.5645,E,60.14,357.15,090411,,,A*54$PTTKT,STAT,0,0,0,0,0*6D
$GPGGA,000300.000,5119.6884,N,00009.5629,E,1,09,0.9,150.4,M,47.0,M,,0000*53$GPGSA,A,3,29,21,05,25,23,06,30,16,31,,,,1.7,0.9,1.5*32$GPRMC,000300.000,A,5119.6884,N,00009.5629,E,59.90,356.15,090411,,,A*5E$PTTKT,STAT,0,0,0,0,0*6D
$GPGGA,000301.000,5119.7050,N,00009.5609,E,1,09,0.9,150.5,M,47.0,M,,0000*51$GPGSA,A,3,29,21,05,25,23,06,30,16,31,,,,1.7,0.9,1.5*32$GPRMC,000301.000,A,5119.7050,N,00009.5609,E,60.19,355.64,090411,,,A*53$PTTKT,STAT,0,0,0,0,0*6D
$GPGGA,000302.000,5119.7217,N,00009.5587,E,1,09,0.9,150.6,M,47.0,M,,0000*55$GPGSA,A,3,29,21,05,25,23,06,30,16,31,,,,1.7,0.9,1.5*32$GPRMC,000302.000,A,5119.7217,N,00009.5587,E,60.51,355.33,090411,,,A*5A$GPGGA,000303.000,5119.7384,N,00009.5561,E,1,09,0.9,151.0,M,47.0,M,,0000*50$GPGSA,A,3,29,21,05,25,23,06,30,16,31,,,,1.7,0.9,1.5*32$GPRMC,000303.000,A,5119.7384,N,00009.5561,E,61.05,354.12,090411,,,A*5A$PTTKT,STAT,0,0,0,0,0*6D
$GPGGA,000304.000,5119.7552,N,00009.5530,E,1,09,0.9,150.9,M,47.0,M,,0000*56$GPGSA,A,3,29,21,05,25,23,06,30,16,31,,,,1.7,0.9,1.5*32$GPGSV,3,1,11,30,63,293,41,21,54,150,25,29,42,068,48,31,42,208,33*70$GPGSV,3,2,11,16,40,297,27,25,22,121,33,06,21,254,33,05,14,045,46*72$GPGSV,3,3,11,23,10,298,27,13,09,331,33,03,07,257,*41$GPRMC,000304.000,A,5119.7552,N,00009.5530,E,61.39,353.37,090411,,,A*5B$PTTKT,STAT,0,0,0,0,0*6D
$GPGGA,000305.000,5119.7721,N,00009.5494,E,1,09,0.9,151.1,M,47.0,M,,0000*57$GPGSA,A,3,29,21,05,25,23,06,30,16,31,,,,1.7,0.9,1.5*32$GPRMC,000305.000,A,5119.7721,N,00009.5494,E,61.81,352.26,090411,,,A*51$PTTKT,STAT,0,0,0,0,0*6D
$GPGGA,000306.000,5119.7892,N,00009.5455,E,1,09,0.9,151.3,M,47.0,M,,0000*5C$GPGSA,A,3,29,21,05,25,23,06,30,16,31,,,,1.7,0.9,1.5*32$GPRMC,000306.000,A,5119.7892,N,00009.5455,E,62.20,351.80,090411,,,A*5F$GPGGA,000307.000,5119.8061,N,00009.5412,E,1,08,1.0,151.1,M,47.0,M,,0000*5E$GPGSA,A,3,29,21,05,25,06,30,16,31,,,,,2.0,1.0,1.7*3D$GPRMC,000307.000,A,5119.8061,N,00009.5412,E,62.66,351.15,090411,,,A*58$PTTKT,STAT,0,0,0,0,0*6D
$GPGGA,000308.000,5119.8232,N,00009.5366,E,1,08,1.0,151.0,M,47.0,M,,0000*50$GPGSA,A,3,29,21,05,25,06,30,16,31,,,,,2.0,1.0,1.7*3D$GPRMC,000308.000,A,5119.8232,N,00009.5366,E,63.21,350.34,090411,,,A*57$PTTKT,STAT,0,0,0,0,0*6D
$GPGGA,000309.000,5119.8404,N,00009.5317,E,1,07,1.2,151.1,M,47.0,M,,0000*58$GPGSA,A,3,29,21,05,25,30,16,31,,,,,,2.6,1.2,2.4*3F$GPGSV,3,1,11,30,63,293,41,21,54,150,26,29,42,068,47,31,42,208,32*7D$GPGSV,3,2,11,16,40,297,25,25,22,121,31,06,21,254,,05,14,045,47*73$GPGSV,3,3,11,23,10,298,,13,09,331,33,03,07,257,*44$GPRMC,000309.000,A,5119.8404,N,00009.5317,E,63.62,349.99,090411,,,A*5B$PTTKT,STAT,0,0,0,0,0*6D
$GPGGA,000310.000,5119.8578,N,00009.5265,E,1,07,1.2,151.3,M,47.0,M,,0000*5C$GPGSA,A,3,29,21,05,25,30,16,31,,,,,,2.6,1.2,2.4*3F$GPRMC,000310.000,A,5119.8578,N,00009.5265,E,64.08,349.35,090411,,,A*50$GPGGA,000311.000,5119.8754,N,00009.5209,E,1,07,1.2,151.6,M,47.0,M,,0000*5E$GPGSA,A,3,29,21,05,25,30,16,31,,,,,,2.6,1.2,2.4*3F$GPRMC,000311.000,A,5119.8754,N,00009.5209,E,64.59,348.19,090411,,,A*5C$PTTKT,STAT,0,0,0,0,0*6D
$GPGGA,000312.000,5119.8931,N,00009.5147,E,1,07,1.2,151.9,M,47.0,M,,0000*56$GPGSA,A,3,29,21,05,25,30,16,31,,,,,,2.6,1.2,2.4*3F$GPRMC,000312.000,A,5119.8931,N,00009.5147,E,65.28,347.08,090411,,,A*53$PTTKT,STAT,0,0,0,0,0*6D
$GPGGA,000313.000,5119.9109,N,00009.5079,E,1,07,1.2,152.1,M,47.0,M,,0000*52$GPGSA,A,3,29,21,05,25,30,16,31,,,,,,2.6,1.2,2.4*3F$GPRMC,000313.000,A,5119.9109,N,00009.5079,E,65.97,346.56,090411,,,A*52$PTTKT,STAT,0,0,0,0,0*6D
$GPGGA,000314.000,5119.9289,N,00009.5008,E,1,07,1.2,152.3,M,47.0,M,,0000*5A$GPGSA,A,3,29,21,05,25,30,16,31,,,,,,2.6,1.2,2.4*3F$GPGSV,3,1,11,30,63,293,41,21,54,150,34,29,42,068,46,31,42,208,32*7F$GPGSV,3,2,11,16,40,297,33,25,22,121,33,06,21,254,,05,14,045,23*74$GPGSV,3,3,11,23,10,298,,13,09,331,40,03,07,257,*40$GPRMC,000314.000,A,5119.9289,N,00009.5008,E,66.51,345.74,090411,,,A*52$GPGGA,000315.000,5119.9470,N,00009.4931,E,1,07,1.2,151.9,M,47.0,M,,0000*50$GPGSA,A,3,29,21,05,25,30,16,31,,,,,,2.6,1.2,2.4*3F$GPRMC,000315.000,A,5119.9470,N,00009.4931,E,67.19,345.01,090411,,,A*5E$PTTKT,STAT,0,0,0,0,0*6D
$GPGGA,000316.000,5119.9650,N,00009.4850,E,1,08,1.0,151.4,M,47.0,M,,0000*55$GPGSA,A,3,29,21,05,25,06,30,16,31,,,,,2.0,1.0,1.7*3D$GPRMC,000316.000,A,5119.9650,N,00009.4850,E,67.77,344.44,090411,,,A*53$PTTKT,STAT,0,0,0,0,0*6D
$GPGGA,000317.000,5119.9831,N,00009.4765,E,1,08,1.0,150.8,M,47.0,M,,0000*59$GPGSA,A,3,29,21,05,25,06,30,16,31,,,,,2.0,1.0,1.7*3D$GPRMC,000317.000,A,5119.9831,N,00009.4765,E,68.28,343.56,090411,,,A*53$PTTKT,STAT,0,0,0,0,0*6D
$GPGGA,000318.000,5120.0012,N,00009.4676,E,1,08,1.0,150.2,M,47.0,M,,0000*55$GPGSA,A,3,29,21,05,25,06,30,16,31,,,,,2.0,1.0,1.7*3D$GPRMC,000318.000,A,5120.0012,N,00009.4676,E,68.46,343.15,090411,,,A*5A$GPGGA,000319.000,5120.0194,N,00009.4585,E,1,08,1.0,149.6,M,47.0,M,,0000*58$GPGSA,A,3,29,21,05,25,06,30,16,31,,,,,2.0,1.0,1.7*3D$GPGSV,3,1,11,30,63,293,41,21,54,150,34,29,42,068,45,31,42,208,38*76$GPGSV,3,2,11,16,40,297,37,25,22,121,33,06,21,254,17,05,14,045,31*75$GPGSV,3,3,11,23,10,298,,13,09,331,41,03,07,257,*41$GPRMC,000319.000,A,5120.0194,N,00009.4585,E,68.15,342.79,090411,,,A*56$PTTKT,STAT,0,0,0,0,0*6D
$GPGGA,000320.000,5120.0374,N,00009.4495,E,1,07,1.2,148.8,M,47.0,M,,0000*5C$GPGSA,A,3,29,21,05,25,30,16,31,,,,,,2.6,1.2,2.4*3F$GPRMC,000320.000,A,5120.0374,N,00009.4495,E,67.77,343.17,090411,,,A*52$PTTKT,STAT,0,0,0,0,0*6D
$GPGGA,000321.000,5120.0553,N,00009.4409,E,1,07,1.2,148.1,M,47.0,M,,0000*52$GPGSA,A,3,29,21,05,25,30,16,31,,,,,,2.6,1.2,2.4*3F$GPRMC,000321.000,A,5120.0553,N,00009.4409,E,66.88,343.67,090411,,,A*53$PTTKT,STAT,0,0,0,0,0*6D
$GPGGA,000322.000,5120.0731,N,00009.4327,E,1,06,1.3,147.2,M,47.0,M,,0000*50$GPGSA,A,3,29,21,25,30,16,31,,,,,,,3.3,1.3,3.0*3A$GPRMC,000322.000,A,5120.0731,N,00009.4327,E,66.25,344.77,090411,,,A*5C$GPGGA,000323.000,5120.0908,N,00009.4251,E,1,06,1.3,146.8,M,47.0,M,,0000*5E$GPGSA,A,3,29,21,25,30,16,31,,,,,,,3.3,1.3,3.0*3A$GPRMC,000323.000,A,5120.0908,N,00009.4251,E,65.71,345.60,090411,,,A*5C$PTTKT,STAT,0,0,0,0,0*6D
$GPGGA,000324.000,5120.1084,N,00009.4178,E,1,06,1.3,146.2,M,47.0,M,,0000*57$GPGSA,A,3,29,21,25,30,16,31,,,,,,,3.3,1.3,3.0*3A$GPGSV,3,1,11,30,63,293,40,21,54,150,32,29,42,068,44,31,42,208,39*71$GPGSV,3,2,11,16,40,297,31,25,22,121,34,06,21,254,,05,14,045,20*72$GPGSV,3,3,11,23,10,298,,13,09,331,41,03,07,257,*41$GPRMC,000324.000,A,5120.1084,N,00009.4178,E,65.13,345.82,090411,,,A*57$PTTKT,STAT,0,0,0,0,0*6D
$GPGGA,000325.000,5120.1258,N,00009.4108,E,1,07,1.2,145.5,M,47.0,M,,0000*56$GPGSA,A,3,29,21,05,25,30,16,31,,,,,,2.6,1.2,2.4*3F$GPRMC,000325.000,A,5120.1258,N,00009.4108,E,64.52,346.39,090411,,,A*55$PTTKT,STAT,0,0,0,0,0*6D
$GPGGA,000326.000,5120.1432,N,00009.4042,E,1,07,1.2,144.7,M,47.0,M,,0000*53$GPGSA,A,3,29,21,05,25,30,16,31,,,,,,2.6,1.2,2.4*3F$GPRMC,000326.000,A,5120.1432,N,00009.4042,E,63.96,347.38,090411,,,A*5C$PTTKT,STAT,0,0,0,0,0*6D
$PTTKT,STAT,0,0,0,0,0*6D
$GPGGA,000327.000,5120.1605,N,00009.3984,E,1,07,1.2,143.9,M,47.0,M,,0000*59$GPGSA,A,3,29,21,05,25,30,16,31,,,,,,2.6,1.2,2.4*3F$GPRMC,000327.000,A,5120.1605,N,00009.3984,E,63.49,348.86,090411,,,A*57$GPGGA,000328.000,5120.1776,N,00009.3932,E,1,08,1.0,143.1,M,47.0,M,,0000*5B$GPGSA,A,3,29,21,05,25,06,30,16,31,,,,,2.0,1.0,1.7*3D$GPRMC,000328.000,A,5120.1776,N,00009.3932,E,62.74,349.89,090411,,,A*51$GPGGA,000329.000,5120.1948,N,00009.3883,E,1,09,0.9,143.0,M,47.0,M,,0000*5A$GPGSA,A,3,29,21,05,25,06,23,30,16,31,,,,1.7,0.9,1.5*32$GPGSV,3,1,11,30,63,293,40,21,54,150,33,29,42,068,45,31,42,208,30*78$GPGSV,3,2,11,16,40,297,28,25,22,121,34,06,21,254,33,05,14,045,36*7D$GPGSV,3,3,11,23,10,298,33,13,09,331,41,03,07,257,*41$GPRMC,000329.000,A,5120.1948,N,00009.3883,E,62.25,350.11,090411,,,A*55$GPGGA,000330.000,5120.2120,N,00009.3836,E,1,09,0.9,141.9,M,47.0,M,,0000*52$GPGSA,A,3,29,21,05,25,06,23,30,16,31,,,,1.7,0.9,1.5*32$GPRMC,000330.000,A,5120.2120,N,00009.3836,E,62.54,350.97,090411,,,A*5E$GPGGA,000331.000,5120.2292,N,00009.3794,E,1,07,1.2,140.9,M,47.0,M,,0000*5B$GPGSA,A,3,29,21,05,06,30,16,31,,,,,,2.2,1.2,1.9*34$GPRMC,000331.000,A,5120.2292,N,00009.3794,E,62.60,351.96,090411,,,A*55$PTTKT,STAT,0,0,0,0,0*6D
$GPGGA,000332.000,5120.2465,N,00009.3757,E,1,07,1.2,140.3,M,47.0,M,,0000*53$GPGSA,A,3,29,21,05,06,30,16,31,,,,,,2.2,1.2,1.9*34$GPRMC,000332.000,A,5120.2465,N,00009.3757,E,62.90,352.63,090411,,,A*51$PTTKT,STAT,0,0,0,0,0*6D
$GPGGA,000333.000,5120.2639,N,00009.3722,E,1,08,1.0,139.6,M,47.0,M,,0000*5D$GPGSA,A,3,29,21,05,25,06,30,16,31,,,,,2.0,1.0,1.7*3D$GPRMC,000333.000,A,5120.2639,N,00009.3722,E,63.21,353.12,090411,,,A*55$GPGGA,000334.000,5120.2814,N,00009.3690,E,1,08,1.0,139.3,M,47.0,M,,0000*56$GPGSA,A,3,29,21,05,25,06,30,16,31,,,,,2.0,1.0,1.7*3D$GPGSV,3,1,11,30,63,293,41,21,54,150,33,29,42,068,45,31,42,208,27*7F$GPGSV,3,2,11,16,40,297,34,25,22,121,29,06,21,254,36,05,14,045,46*7E$GPGSV,3,3,11,23,10,298,24,13,09,331,35,03,07,257,*44$GPRMC,000334.000,A,5120.2814,N,00009.3690,E,63.47,353.90,090411,,,A*51$PTTKT,STAT,0,0,0,0,0*6D
$GPGGA,000335.000,5120.2990,N,00009.3664,E,1,08,1.0,139.1,M,47.0,M,,0000*53$GPGSA,A,3,29,21,05,25,06,30,16,31,,,,,2.0,1.0,1.7*3D$GPRMC,000335.000,A,5120.2990,N,00009.3664,E,63.80,355.12,090411,,,A*51$PTTKT,STAT,0,0,0,0,0*6D
$GPGGA,000336.000,5120.3167,N,00009.3643,E,1,08,1.0,138.8,M,47.0,M,,0000*5C$GPGSA,A,3,29,21,05,25,06,30,16,31,,,,,2.0,1.0,1.7*3D$GPRMC,000336.000,A,5120.3167,N,00009.3643,E,64.25,355.97,090411,,,A*53$PTTKT,STAT,0,0,0,0,0*6D
$GPGGA,000337.000,5120.3345,N,00009.3626,E,1,08,1.0,138.6,M,47.0,M,,0000*52$GPGSA,A,3,29,21,05,25,06,30,16,31,,,,,2.0,1.0,1.7*3D$GPRMC,000337.000,A,5120.3345,N,00009.3626,E,64.85,356.94,090411,,,A*59$GPGGA,000338.000,5120.3525,N,00009.3613,E,1,09,0.9,138.7,M,47.0,M,,0000*53$GPGSA,A,3,29,21,05,25,06,23,30,16,31,,,,1.7,0.9,1.5*32$GPRMC,000338.000,A,5120.3525,N,00009.3613,E,65.29,357.47,090411,,,A*58$PTTKT,STAT,0,0,0,0,0*6D
$GPGGA,000339.000,5120.3706,N,00009.3603,E,1,09,0.9,138.8,M,47.0,M,,0000*5F$GPGSA,A,3,29,21,05,25,06,23,30,16,31,,,,1.7,0.9,1.5*32$GPGSV,3,1,11,30,63,293,41,21,54,150,26,29,42,068,46,31,42,208,31*7F$GPGSV,3,2,11,16,40,297,36,25,22,121,31,06,21,254,32,05,14,045,47*70$GPGSV,3,3,11,23,10,298,29,13,09,331,28,03,07,257,*45$GPRMC,000339.000,A,5120.3706,N,00009.3603,E,65.75,358.09,090411,,,A*57$PTTKT,STAT,0,0,0,0,0*6D
$GPGGA,000340.000,5120.3890,N,00009.3595,E,1,09,0.9,139.0,M,47.0,M,,0000*54$GPGSA,A,3,29,21,05,25,06,23,30,16,31,,,,1.7,0.9,1.5*32$GPRMC,000340.000,A,5120.3890,N,00009.3595,E,66.06,359.02,090411,,,A*58$PTTKT,STAT,0,0,0,0,0*6D
$GPGGA,000341.000,5120.4074,N,00009.3593,E,1,08,1.0,139.3,M,47.0,M,,0000*5C$GPGSA,A,3,29,21,05,25,06,30,16,31,,,,,2.0,1.0,1.7*3D$GPRMC,000341.000,A,5120.4074,N,00009.3593,E,66.57,359.84,090411,,,A*50$PTTKT,STAT,0,0,0,0,0*6D
$GPGGA,000342.000,5120.4260,N,00009.3595,E,1,08,1.0,139.7,M,47.0,M,,0000*5A$GPGSA,A,3,29,21,05,25,06,30,16,31,,,,,2.0,1.0,1.7*3D$GPRMC,000342.000,A,5120.4260,N,00009.3595,E,66.62,0.70,090411,,,A*50$GPGGA,000343.000,5120.4445,N,00009.3601,E,1,08,1.0,140.0,M,47.0,M,,0000*5D$GPGSA,A,3,29,21,05,25,06,30,16,31,,,,,2.0,1.0,1.7*3D$GPRMC,000343.000,A,5120.4445,N,00009.3601,E,66.45,1.41,090411,,,A*58$PTTKT,STAT,0,0,0,0,0*6D
$GPGGA,000344.000,5120.4630,N,00009.3611,E,1,08,1.0,140.4,M,47.0,M,,0000*5F$GPGSA,A,3,29,21,05,25,06,30,16,31,,,,,2.0,1.0,1.7*3D$GPGSV,3,1,11,30,63,293,41,21,54,150,29,29,42,068,47,31,42,208,24*75$GPGSV,3,2,11,16,40,297,41,25,22,121,36,06,21,254,29,05,14,045,44*7E$GPGSV,3,3,11,23,10,298,,13,09,331,29,03,07,257,*4F$GPRMC,000344.000,A,5120.4630,N,00009.3611,E,66.50,2.02,090411,,,A*5E$PTTKT,STAT,0,0,0,0,0*6D
$GPGGA,000345.000,5120.4814,N,00009.3622,E,1,08,1.0,140.7,M,47.0,M,,0000*55$GPGSA,A,3,29,21,05,25,06,30,16,31,,,,,2.0,1.0,1.7*3D$GPRMC,000345.000,A,5120.4814,N,00009.3622,E,66.20,2.22,090411,,,A*52$PTTKT,STAT,0,0,0,0,0*6D
$GPGGA,000346.000,5120.4997,N,00009.3634,E,1,08,1.0,141.2,M,47.0,M,,0000*5F$GPGSA,A,3,29,21,05,25,06,30,16,31,,,,,2.0,1.0,1.7*3D$GPRMC,000346.000,A,5120.4997,N,00009.3634,E,65.76,2.42,090411,,,A*5A$GPGGA,000347.000,5120.5179,N,00009.3647,E,1,08,1.0,141.6,M,47.0,M,,0000*57$GPGSA,A,3,29,21,05,25,06,30,16,31,,,,,2.0,1.0,1.7*3D$GPRMC,000347.000,A,5120.5179,N,00009.3647,E,65.60,2.47,090411,,,A*54$PTTKT,STAT,0,0,0,0,0*6D
$GPGGA,000348.000,5120.5362,N,00009.3660,E,1,08,1.0,142.1,M,47.0,M,,0000*51$GPGSA,A,3,29,21,05,25,06,30,16,31,,,,,2.0,1.0,1.7*3D$GPRMC,000348.000,A,5120.5362,N,00009.3660,E,65.44,2.58,090411,,,A*5E$PTTKT,STAT,0,0,0,0,0*6D
