$GPGGA,041625.000,5212.8427,N,00006.0414,E,1,10,0.9,18.7,M,47.0,M,,0000*67$GPGSA,A,3,03,22,16,19,11,24,06,08,28,18,,,1.6,0.9,1.3*39$GPRMC,041625.000,A,5212.8427,N,00006.0414,E,0.00,,090411,,,A*73$PTTKT,STAT,0,0,0,0,0*6D
$GPGGA,041626.000,5212.8427,N,00006.0414,E,1,10,0.9,18.7,M,47.0,M,,0000*64$GPGSA,A,3,03,22,16,19,11,24,06,08,28,18,,,1.6,0.9,1.3*39$GPRMC,041626.000,A,5212.8427,N,00006.0414,E,0.00,,090411,,,A*70$PTTKT,STAT,0,0,0,0,0*6D
$GPGGA,041627.000,5212.8427,N,00006.0414,E,1,10,0.9,18.7,M,47.0,M,,0000*65$GPGSA,A,3,03,22,16,19,11,24,06,08,28,18,,,1.6,0.9,1.3*39$GPGSV,3,1,12,19,84,263,39,03,57,144,40,22,53,083,42,06,46,133,38*70$GPGSV,3,2,12,11,33,264,25,18,29,052,31,24,24,251,24,08,12,297,35*7A$GPGSV,3,3,12,28,11,326,25,14,10,115,21,16,09,177,40,32,04,198,*7C$GPRMC,041627.000,A,5212.8427,N,00006.0414,E,0.00,,090411,,,A*71$PTTKT,STAT,0,0,0,0,0*6D
$GPGGA,041628.000,5212.8427,N,00006.0414,E,1,10,0.9,18.7,M,47.0,M,,0000*6A$GPGSA,A,3,03,22,16,19,11,24,06,08,28,18,,,1.6,0.9,1.3*39$GPRMC,041628.000,A,5212.8427,N,00006.0414,E,0.00,,090411,,,A*7E$PTTKT,STAT,0,0,0,0,0*6D
$GPGGA,041629.000,5212.8427,N,00006.0414,E,1,10,0.9,18.7,M,47.0,M,,0000*6B$GPGSA,A,3,03,22,16,19,11,24,06,08,28,18,,,1.6,0.9,1.3*39$GPRMC,041629.000,A,5212.8427,N,00006.0414,E,0.00,,090411,,,A*7F$PTTKT,STAT,0,0,0,0,0*6D
$GPGGA,041630.000,5212.8427,N,00006.0414,E,1,10,0.9,18.7,M,47.0,M,,0000*63$GPGSA,A,3,03,22,16,19,11,24,06,08,28,18,,,1.6,0.9,1.3*39$GPRMC,041630.000,A,5212.8427,N,00006.0414,E,0.00,,090411,,,A*77$GPGGA,041631.000,5212.8427,N,00006.0414,E,1,10,0.9,18.7,M,47.0,M,,0000*62$GPGSA,A,3,03,22,16,19,11,24,06,08,28,18,,,1.6,0.9,1.3*39$GPRMC,041631.000,A,5212.8427,N,00006.0414,E,0.00,,090411,,,A*76$PTTKT,STAT,0,0,0,0,0*6D
$GPGGA,041632.000,5212.8427,N,00006.0414,E,1,10,0.9,18.7,M,47.0,M,,0000*61$GPGSA,A,3,03,22,16,19,11,24,06,08,28,18,,,1.6,0.9,1.3*39$GPGSV,3,1,12,19,84,263,39,03,57,144,40,22,53,083,42,06,46,133,38*70$GPGSV,3,2,12,11,33,264,25,18,29,052,31,24,24,251,24,08,12,297,35*7A$GPGSV,3,3,12,28,11,326,25,14,10,115,20,16,09,177,40,32,04,198,*7D$GPRMC,041632.000,A,5212.8427,N,00006.0414,E,0.00,,090411,,,A*75$PTTKT,STAT,0,0,0,0,0*6D
$GPGGA,041633.000,5212.8427,N,00006.0414,E,1,10,0.9,18.7,M,47.0,M,,0000*60$GPGSA,A,3,03,22,16,19,11,24,06,08,28,18,,,1.6,0.9,1.3*39$GPRMC,041633.000,A,5212.8427,N,00006.0414,E,0.00,,090411,,,A*74$PTTKT,STAT,0,0,0,0,0*6D
$GPGGA,041634.000,5212.8427,N,00006.0414,E,1,10,0.9,18.7,M,47.0,M,,0000*67$GPGSA,A,3,03,22,16,19,11,24,06,08,28,18,,,1.6,0.9,1.3*39$GPRMC,041634.000,A,5212.8427,N,00006.0414,E,0.00,,090411,,,A*73$PTTKT,STAT,0,0,0,0,0*6D
$GPGGA,041635.000,5212.8427,N,00006.0414,E,1,10,0.9,18.7,M,47.0,M,,0000*66$GPGSA,A,3,03,22,16,19,11,24,06,08,28,18,,,1.6,0.9,1.3*39$GPRMC,041635.000,A,5212.8427,N,00006.0414,E,0.00,,090411,,,A*72$PTTKT,STAT,0,0,0,0,0*6D
$GPGGA,041636.000,5212.8427,N,00006.0414,E,1,10,0.9,18.7,M,47.0,M,,0000*65$GPGSA,A,3,03,22,16,19,11,24,06,08,28,18,,,1.6,0.9,1.3*39$GPRMC,041636.000,A,5212.8427,N,00006.0414,E,0.00,,090411,,,A*71$PTTKT,STAT,0,0,0,0,0*6D
$GPGGA,041637.000,5212.8427,N,00006.0414,E,1,10,0.9,18.7,M,47.0,M,,0000*64$GPGSA,A,3,03,22,16,19,11,24,06,08,28,18,,,1.6,0.9,1.3*39$GPGSV,3,1,12,19,84,263,39,03,57,144,40,22,53,083,42,06,46,133,38*70$GPGSV,3,2,12,11,33,264,24,18,29,052,31,24,24,251,24,08,12,297,35*7B$GPGSV,3,3,12,28,11,326,24,14,10,115,19,16,09,177,40,32,04,198,*76$GPRMC,041637.000,A,5212.8427,N,00006.0414,E,0.00,,090411,,,A*70$PTTKT,STAT,0,0,0,0,0*6D
$GPGGA,041638.000,5212.8427,N,00006.0414,E,1,10,0.9,18.7,M,47.0,M,,0000*6B$GPGSA,A,3,03,22,16,19,11,24,06,08,28,18,,,1.6,0.9,1.3*39$GPRMC,041638.000,A,5212.8427,N,00006.0414,E,0.00,,090411,,,A*7F$GPGGA,041639.000,5212.8427,N,00006.0414,E,1,10,0.9,18.7,M,47.0,M,,0000*6A$GPGSA,A,3,03,22,16,19,11,24,06,08,28,18,,,1.6,0.9,1.3*39$GPRMC,041639.000,A,5212.8427,N,00006.0414,E,0.00,,090411,,,A*7E$PTTKT,STAT,0,0,0,0,0*6D
$GPGGA,041640.000,5212.8427,N,00006.0414,E,1,10,0.9,18.7,M,47.0,M,,0000*64$GPGSA,A,3,03,22,16,19,11,24,06,08,28,18,,,1.6,0.9,1.3*39$GPRMC,041640.000,A,5212.8427,N,00006.0414,E,0.00,,090411,,,A*70$PTTKT,STAT,0,0,0,0,0*6D
$GPGGA,041641.000,5212.8427,N,00006.0414,E,1,10,0.9,18.7,M,47.0,M,,0000*65$GPGSA,A,3,03,22,16,19,11,24,06,08,28,18,,,1.6,0.9,1.3*39$GPRMC,041641.000,A,5212.8427,N,00006.0414,E,0.00,,090411,,,A*71$PTTKT,STAT,0,0,0,0,0*6D
$GPGGA,041642.000,5212.8427,N,00006.0414,E,1,10,0.9,18.7,M,47.0,M,,0000*66$GPGSA,A,3,03,22,16,19,11,24,06,08,28,18,,,1.6,0.9,1.3*39$GPGSV,3,1,12,19,84,263,39,03,57,144,40,22,53,083,42,06,46,133,38*70$GPGSV,3,2,12,11,33,264,24,18,29,052,31,24,24,251,25,08,12,297,35*7A$GPGSV,3,3,12,28,11,326,23,14,10,115,18,16,09,177,40,32,04,198,*70$GPRMC,041642.000,A,5212.8427,N,00006.0414,E,0.00,,090411,,,A*72$PTTKT,STAT,0,0,0,0,0*6D
$GPGGA,041643.000,5212.8427,N,00006.0414,E,1,10,0.9,18.7,M,47.0,M,,0000*67$GPGSA,A,3,03,22,16,19,11,24,06,08,28,18,,,1.6,0.9,1.3*39$GPRMC,041643.000,A,5212.8427,N,00006.0414,E,0.00,,090411,,,A*73$PTTKT,STAT,0,0,0,0,0*6D
$GPGGA,041644.000,5212.8427,N,00006.0414,E,1,10,0.9,18.7,M,47.0,M,,0000*60$GPGSA,A,3,03,22,16,19,11,24,06,08,28,18,,,1.6,0.9,1.3*39$GPRMC,041644.000,A,5212.8427,N,00006.0414,E,0.00,,090411,,,A*74$PTTKT,STAT,0,0,0,0,0*6D
$GPGGA,041645.000,5212.8427,N,00006.0414,E,1,10,0.9,18.7,M,47.0,M,,0000*61$GPGSA,A,3,03,22,16,19,11,24,06,08,28,18,,,1.6,0.9,1.3*39$GPRMC,041645.000,A,5212.8427,N,00006.0414,E,0.00,,090411,,,A*75$GPGGA,041646.000,5212.8427,N,00006.0414,E,1,10,0.9,18.7,M,47.0,M,,0000*62$GPGSA,A,3,03,22,16,19,11,24,06,08,28,18,,,1.6,0.9,1.3*39$GPRMC,041646.000,A,5212.8427,N,00006.0414,E,0.00,,090411,,,A*76$PTTKT,STAT,0,0,0,0,0*6D
$GPGGA,041647.000,5212.8427,N,00006.0414,E,1,10,0.9,18.7,M,47.0,M,,0000*63$GPGSA,A,3,03,22,16,19,11,24,06,08,28,18,,,1.6,0.9,1.3*39$GPGSV,3,1,12,19,84,263,40,03,57,144,40,22,53,083,42,06,46,133,38*7E$GPGSV,3,2,12,11,33,264,24,18,29,052,31,24,24,251,26,08,12,297,35*79$GPGSV,3,3,12,28,11,326,22,14,10,115,17,16,09,177,40,32,04,198,*7E$GPRMC,041647.000,A,5212.8427,N,00006.0414,E,0.00,,090411,,,A*77$PTTKT,STAT,0,0,0,0,0*6D
$GPGGA,041648.000,5212.8427,N,00006.0414,E,1,10,0.9,18.7,M,47.0,M,,0000*6C$GPGSA,A,3,03,22,16,19,11,24,06,08,28,18,,,1.6,0.9,1.3*39$GPRMC,041648.000,A,5212.8427,N,00006.0414,E,0.00,,090411,,,A*78$PTTKT,STAT,0,0,0,0,0*6D
$GPGGA,041649.000,5212.8427,N,00006.0414,E,1,10,0.9,18.7,M,47.0,M,,0000*6D$GPGSA,A,3,03,22,16,19,11,24,06,08,28,18,,,1.6,0.9,1.3*39$GPRMC,041649.000,A,5212.8427,N,00006.0414,E,0.00,,090411,,,A*79$PTTKT,STAT,0,0,0,0,0*6D
$GPGGA,041650.000,5212.8427,N,00006.0414,E,1,10,0.9,18.7,M,47.0,M,,0000*65$GPGSA,A,3,03,22,16,19,11,24,06,08,28,18,,,1.6,0.9,1.3*39$GPRMC,041650.000,A,5212.8427,N,00006.0414,E,0.00,,090411,,,A*71$PTTKT,STAT,0,0,0,0,0*6D
$GPGGA,041651.000,5212.8427,N,00006.0414,E,1,10,0.9,18.7,M,47.0,M,,0000*64$GPGSA,A,3,03,22,16,19,11,24,06,08,28,18,,,1.6,0.9,1.3*39$GPRMC,041651.000,A,5212.8427,N,00006.0414,E,0.00,,090411,,,A*70$PTTKT,STAT,0,0,0,0,0*6D
$GPGGA,041652.000,5212.8427,N,00006.0414,E,1,10,0.9,18.7,M,47.0,M,,0000*67$GPGSA,A,3,03,22,16,19,11,24,06,08,28,18,,,1.6,0.9,1.3*39$GPGSV,3,1,12,19,84,263,40,03,57,144,40,22,53,083,43,06,46,133,38*7F$GPGSV,3,2,12,11,33,264,24,18,29,052,31,24,24,251,27,08,12,297,35*78$GPGSV,3,3,12,28,11,326,21,14,10,115,16,16,09,177,40,32,04,198,*7C$GPRMC,041652.000,A,5212.8427,N,00006.0414,E,0.00,,090411,,,A*73$PTTKT,STAT,0,0,0,0,0*6D
$GPGGA,041653.000,5212.8427,N,00006.0414,E,1,10,0.9,18.7,M,47.0,M,,0000*66$GPGSA,A,3,03,22,16,19,11,24,06,08,28,18,,,1.6,0.9,1.3*39$GPRMC,041653.000,A,5212.8427,N,00006.0414,E,0.00,,090411,,,A*72$GPGGA,041654.000,5212.8427,N,00006.0414,E,1,10,0.9,18.7,M,47.0,M,,0000*61$GPGSA,A,3,03,22,16,19,11,24,06,08,28,18,,,1.6,0.9,1.3*39$GPRMC,041654.000,A,5212.8427,N,00006.0414,E,0.00,,090411,,,A*75$PTTKT,STAT,0,0,0,0,0*6D
$GPGGA,041655.000,5212.8427,N,00006.0414,E,1,10,0.9,18.7,M,47.0,M,,0000*60$GPGSA,A,3,03,22,16,19,11,24,06,08,28,18,,,1.6,0.9,1.3*39$GPRMC,041655.000,A,5212.8427,N,00006.0414,E,0.00,,090411,,,A*74$PTTKT,STAT,0,0,0,0,0*6D
$GPGGA,041656.000,5212.8427,N,00006.0414,E,1,10,0.9,18.7,M,47.0,M,,0000*63$GPGSA,A,3,03,22,16,19,11,24,06,08,28,18,,,1.6,0.9,1.3*39$GPRMC,041656.000,A,5212.8427,N,00006.0414,E,0.00,,090411,,,A*77$PTTKT,STAT,0,0,0,0,0*6D
$GPGGA,041657.000,5212.8427,N,00006.0414,E,1,10,0.9,18.7,M,47.0,M,,0000*62$GPGSA,A,3,03,22,16,19,11,24,06,08,28,18,,,1.6,0.9,1.3*39$GPGSV,3,1,12,19,84,263,40,03,57,144,40,22,53,083,43,06,46,133,38*7F$GPGSV,3,2,12,11,33,264,24,18,29,052,31,24,24,251,27,08,12,297,35*78$GPGSV,3,3,12,28,11,326,20,14,10,115,,16,09,177,39,32,04,198,24*72$GPRMC,041657.000,A,5212.8427,N,00006.0414,E,0.00,,090411,,,A*76$PTTKT,STAT,0,0,0,0,0*6D
$GPGGA,041658.000,5212.8427,N,00006.0414,E,1,10,0.9,18.7,M,47.0,M,,0000*6D$GPGSA,A,3,03,22,16,19,11,24,06,08,28,18,,,1.6,0.9,1.3*39$GPRMC,041658.000,A,5212.8427,N,00006.0414,E,0.00,,090411,,,A*79$PTTKT,STAT,0,0,0,0,0*6D
$GPGGA,041659.000,5212.8427,N,00006.0414,E,1,10,0.9,18.7,M,47.0,M,,0000*6C$GPGSA,A,3,03,22,16,19,11,24,06,08,28,18,,,1.6,0.9,1.3*39$GPRMC,041659.000,A,5212.8427,N,00006.0414,E,0.00,,090411,,,A*78$PTTKT,STAT,0,0,0,0,0*6D
$GPGGA,041700.000,5212.8427,N,00006.0414,E,1,10,0.9,18.7,M,47.0,M,,0000*61$GPGSA,A,3,03,22,16,19,11,24,06,08,28,18,,,1.6,0.9,1.3*39$GPRMC,041700.000,A,5212.8427,N,00006.0414,E,0.00,,090411,,,A*75$PTTKT,STAT,0,0,0,0,0*6D
$GPGGA,041701.000,5212.8427,N,00006.0414,E,1,10,0.9,18.7,M,47.0,M,,0000*60$GPGSA,A,3,03,22,16,19,11,24,06,08,28,18,,,1.6,0.9,1.3*39$GPRMC,041701.000,A,5212.8427,N,00006.0414,E,0.00,,090411,,,A*74$PTTKT,STAT,0,0,0,0,0*6D
$GPGGA,041702.000,5212.8427,N,00006.0414,E,1,10,0.9,18.7,M,47.0,M,,0000*63$GPGSA,A,3,03,22,16,19,11,24,06,08,28,18,,,1.6,0.9,1.3*39$GPGSV,3,1,12,19,84,263,41,03,57,144,41,22,53,083,43,06,46,133,38*7F$GPGSV,3,2,12,11,33,264,25,18,29,052,31,24,24,251,27,08,12,297,35*79$GPGSV,3,3,12,28,11,326,22,14,10,115,,16,09,177,39,32,04,198,25*71$GPRMC,041702.000,A,5212.8427,N,00006.0414,E,0.00,,090411,,,A*77$PTTKT,STAT,0,0,0,0,0*6D
$GPGGA,041703.000,5212.8427,N,00006.0414,E,1,10,0.9,18.7,M,47.0,M,,0000*62$GPGSA,A,3,03,22,16,19,11,24,06,08,28,18,,,1.6,0.9,1.3*39$GPRMC,041703.000,A,5212.8427,N,00006.0414,E,0.00,,090411,,,A*76$GPGGA,041704.000,5212.8427,N,00006.0414,E,1,10,0.9,18.7,M,47.0,M,,0000*65$GPGSA,A,3,03,22,16,19,11,24,06,08,28,18,,,1.6,0.9,1.3*39$GPRMC,041704.000,A,5212.8427,N,00006.0414,E,0.00,,090411,,,A*71$PTTKT,STAT,0,0,0,0,0*6D
$GPGGA,041705.000,5212.8427,N,00006.0414,E,1,10,0.9,18.7,M,47.0,M,,0000*64$GPGSA,A,3,03,22,16,19,11,24,06,08,28,18,,,1.6,0.9,1.3*39$GPRMC,041705.000,A,5212.8427,N,00006.0414,E,0.00,,090411,,,A*70$PTTKT,STAT,0,0,0,0,0*6D
$GPGGA,041706.000,5212.8427,N,00006.0414,E,1,10,0.9,18.7,M,47.0,M,,0000*67$GPGSA,A,3,03,22,16,19,11,24,06,08,28,18,,,1.6,0.9,1.3*39$GPRMC,041706.000,A,5212.8427,N,00006.0414,E,0.00,,090411,,,A*73$PTTKT,STAT,0,0,0,0,0*6D
$GPGGA,041707.000,5212.8427,N,00006.0414,E,1,10,0.9,18.7,M,47.0,M,,0000*66$GPGSA,A,3,03,22,16,19,11,24,06,08,28,18,,,1.6,0.9,1.3*39$GPGSV,3,1,12,19,84,263,41,03,57,144,41,22,53,083,43,06,46,133,39*7E$GPGSV,3,2,12,11,33,264,24,18,29,052,31,24,24,251,28,08,12,297,35*77$GPGSV,3,3,12,28,11,326,23,14,10,115,,16,09,177,39,32,04,198,25*70$GPRMC,041707.000,A,5212.8427,N,00006.0414,E,0.00,,090411,,,A*72$PTTKT,STAT,0,0,0,0,0*6D
$GPGGA,041708.000,5212.8427,N,00006.0414,E,1,10,0.9,18.7,M,47.0,M,,0000*69$GPGSA,A,3,03,22,16,19,11,24,06,08,28,18,,,1.6,0.9,1.3*39$GPRMC,041708.000,A,5212.8427,N,00006.0414,E,0.00,,090411,,,A*7D$PTTKT,STAT,0,0,0,0,0*6D
$GPGGA,041709.000,5212.8427,N,00006.0414,E,1,10,0.9,18.7,M,47.0,M,,0000*68$GPGSA,A,3,03,22,16,19,11,24,06,08,28,18,,,1.6,0.9,1.3*39$GPRMC,041709.000,A,5212.8427,N,00006.0414,E,0.00,,090411,,,A*7C$PTTKT,STAT,0,0,0,0,0*6D
$GPGGA,041710.000,5212.8427,N,00006.0414,E,1,10,0.9,18.7,M,47.0,M,,0000*60$GPGSA,A,3,03,22,16,19,11,24,06,08,28,18,,,1.6,0.9,1.3*39$GPRMC,041710.000,A,5212.8427,N,00006.0414,E,0.00,,090411,,,A*74$GPGGA,041711.000,5212.8427,N,00006.0414,E,1,10,0.9,18.7,M,47.0,M,,0000*61$GPGSA,A,3,03,22,16,19,11,24,06,08,28,18,,,1.6,0.9,1.3*39$GPRMC,041711.000,A,5212.8427,N,00006.0414,E,0.00,,090411,,,A*75$PTTKT,STAT,0,0,0,0,0*6D
$GPGGA,041712.000,5212.8427,N,00006.0414,E,1,10,0.9,18.7,M,47.0,M,,0000*62$GPGSA,A,3,03,22,16,19,11,24,06,08,28,18,,,1.6,0.9,1.3*39$GPGSV,3,1,12,19,84,263,41,03,57,144,41,22,53,083,43,06,46,133,39*7E$GPGSV,3,2,12,11,33,264,21,18,29,052,31,24,24,251,28,08,12,297,35*72$GPGSV,3,3,12,28,11,326,22,14,10,115,,16,09,177,39,32,04,198,26*72$GPRMC,041712.000,A,5212.8427,N,00006.0414,E,0.00,,090411,,,A*76$PTTKT,STAT,0,0,0,0,0*6D
$GPGGA,041713.000,5212.8427,N,00006.0414,E,1,10,0.9,18.7,M,47.0,M,,0000*63$GPGSA,A,3,03,22,16,19,11,24,06,08,28,18,,,1.6,0.9,1.3*39$GPRMC,041713.000,A,5212.8427,N,00006.0414,E,0.00,,090411,,,A*77$PTTKT,STAT,0,0,0,0,0*6D
$GPGGA,041714.000,5212.8427,N,00006.0414,E,1,10,0.9,18.7,M,47.0,M,,0000*64$GPGSA,A,3,03,22,16,19,11,24,06,08,28,18,,,1.6,0.9,1.3*39$GPRMC,041714.000,A,5212.8427,N,00006.0414,E,0.00,,090411,,,A*70$PTTKT,STAT,0,0,0,0,0*6D
$GPGGA,041715.000,5212.8427,N,00006.0414,E,1,10,0.9,18.7,M,47.0,M,,0000*65$GPGSA,A,3,03,22,16,19,11,24,06,08,28,18,,,1.6,0.9,1.3*39$GPRMC,041715.000,A,5212.8427,N,00006.0414,E,0.00,,090411,,,A*71$PTTKT,STAT,0,0,0,0,0*6D
$GPGGA,041716.000,5212.8427,N,00006.0414,E,1,10,0.9,18.7,M,47.0,M,,0000*66$GPGSA,A,3,03,22,16,19,11,24,06,08,28,18,,,1.6,0.9,1.3*39$GPRMC,041716.000,A,5212.8427,N,00006.0414,E,0.00,,090411,,,A*72$PTTKT,STAT,0,0,0,0,0*6D
$GPGGA,041717.000,5212.8427,N,00006.0414,E,1,10,0.9,18.7,M,47.0,M,,0000*67$GPGSA,A,3,03,22,16,19,11,24,06,08,28,18,,,1.6,0.9,1.3*39$GPGSV,3,1,12,19,84,263,41,03,57,144,41,22,53,083,42,06,46,133,39*7F$GPGSV,3,2,12,11,33,264,21,18,29,052,31,24,24,251,29,08,12,297,36*70$GPGSV,3,3,12,28,11,326,22,14,10,115,,16,09,177,39,32,04,198,27*73$GPRMC,041717.000,A,5212.8427,N,00006.0414,E,0.00,,090411,,,A*73$PTTKT,STAT,0,0,0,0,0*6D
$GPGGA,041718.000,5212.8427,N,00006.0414,E,1,10,0.9,18.7,M,47.0,M,,0000*68$GPGSA,A,3,03,22,16,19,11,24,06,08,28,18,,,1.6,0.9,1.3*39$GPRMC,041718.000,A,5212.8427,N,00006.0414,E,0.00,,090411,,,A*7C$PTTKT,STAT,0,0,0,0,0*6D
$GPGGA,041719.000,5212.8427,N,00006.0414,E,1,10,0.9,18.7,M,47.0,M,,0000*69$GPGSA,A,3,03,22,16,19,11,24,06,08,28,18,,,1.6,0.9,1.3*39$GPRMC,041719.000,A,5212.8427,N,00006.0414,E,0.00,,090411,,,A*7D$GPGGA,041720.000,5212.8427,N,00006.0414,E,1,10,0.9,18.7,M,47.0,M,,0000*63$GPGSA,A,3,03,22,16,19,11,24,06,08,28,18,,,1.6,0.9,1.3*39$GPRMC,041720.000,A,5212.8427,N,00006.0414,E,0.00,,090411,,,A*77$PTTKT,STAT,0,0,0,0,0*6D
$GPGGA,041721.000,5212.8427,N,00006.0414,E,1,10,0.9,18.7,M,47.0,M,,0000*62$GPGSA,A,3,03,22,16,19,11,24,06,08,28,18,,,1.6,0.9,1.3*39$GPRMC,041721.000,A,5212.8427,N,00006.0414,E,0.00,,090411,,,A*76$PTTKT,STAT,0,0,0,0,0*6D
$GPGGA,041722.000,5212.8427,N,00006.0414,E,1,10,0.9,18.7,M,47.0,M,,0000*61$GPGSA,A,3,03,22,16,19,11,24,06,08,28,18,,,1.6,0.9,1.3*39$GPGSV,3,1,12,19,84,263,41,03,57,144,41,22,53,083,42,06,46,133,40*71$GPGSV,3,2,12,11,33,264,21,18,29,052,30,24,24,251,29,08,12,297,35*72$GPGSV,3,3,12,28,11,326,21,14,10,115,,16,09,177,39,32,04,198,27*70$GPRMC,041722.000,A,5212.8427,N,00006.0414,E,0.00,,090411,,,A*75$PTTKT,STAT,0,0,0,0,0*6D
$GPGGA,041723.000,5212.8427,N,00006.0414,E,1,10,0.9,18.7,M,47.0,M,,0000*60$GPGSA,A,3,03,22,16,19,11,24,06,08,28,18,,,1.6,0.9,1.3*39$GPRMC,041723.000,A,5212.8427,N,00006.0414,E,0.00,,090411,,,A*74$PTTKT,STAT,0,0,0,0,0*6D
$GPGGA,041724.000,5212.8427,N,00006.0414,E,1,10,0.9,18.7,M,47.0,M,,0000*67$GPGSA,A,3,03,22,16,19,11,24,06,08,28,18,,,1.6,0.9,1.3*39$GPRMC,041724.000,A,5212.8427,N,00006.0414,E,0.00,,090411,,,A*73$PTTKT,STAT,0,0,0,0,0*6D
$GPGGA,041725.000,5212.8427,N,00006.0414,E,1,10,0.9,18.7,M,47.0,M,,0000*66$GPGSA,A,3,03,22,16,19,11,24,06,08,28,18,,,1.6,0.9,1.3*39$GPRMC,041725.000,A,5212.8427,N,00006.0414,E,0.00,,090411,,,A*72$PTTKT,STAT,0,0,0,0,0*6D
$GPGGA,041726.000,5212.8427,N,00006.0414,E,1,10,0.9,18.7,M,47.0,M,,0000*65$GPGSA,A,3,03,22,16,19,11,24,06,08,28,18,,,1.6,0.9,1.3*39$GPRMC,041726.000,A,5212.8427,N,00006.0414,E,0.00,,090411,,,A*71$PTTKT,STAT,0,0,0,0,0*6D
$GPGGA,041727.000,5212.8427,N,00006.0414,E,1,10,0.9,18.7,M,47.0,M,,0000*64$GPGSA,A,3,03,22,16,19,11,24,06,08,28,18,,,1.6,0.9,1.3*39$GPGSV,3,1,12,19,84,263,41,03,57,144,41,22,53,083,41,06,46,133,40*72$GPGSV,3,2,12,11,33,264,20,18,29,052,30,24,24,251,29,08,12,297,35*73$GPGSV,3,3,12,28,11,326,21,14,10,115,,16,09,177,39,32,04,198,27*70$GPRMC,041727.000,A,5212.8427,N,00006.0414,E,0.00,,090411,,,A*70$GPGGA,041728.000,5212.8427,N,00006.0414,E,1,10,0.9,18.7,M,47.0,M,,0000*6B$GPGSA,A,3,03,22,16,19,11,24,06,08,28,18,,,1.6,0.9,1.3*39$GPRMC,041728.000,A,5212.8427,N,00006.0414,E,0.00,,090411,,,A*7F$PTTKT,STAT,0,0,0,0,0*6D
$GPGGA,041729.000,5212.8427,N,00006.0414,E,1,10,0.9,18.7,M,47.0,M,,0000*6A$GPGSA,A,3,03,22,16,19,11,24,06,08,28,18,,,1.6,0.9,1.3*39$GPRMC,041729.000,A,5212.8427,N,00006.0414,E,0.00,,090411,,,A*7E$PTTKT,STAT,0,0,0,0,0*6D
$GPGGA,041730.000,5212.8427,N,00006.0414,E,1,10,0.9,18.7,M,47.0,M,,0000*62$GPGSA,A,3,03,22,16,19,11,24,06,08,28,18,,,1.6,0.9,1.3*39$GPRMC,041730.000,A,5212.8427,N,00006.0414,E,0.00,,090411,,,A*76$PTTKT,STAT,0,0,0,0,0*6D
$GPGGA,041731.000,5212.8427,N,00006.0414,E,1,10,0.9,18.7,M,47.0,M,,0000*63$GPGSA,A,3,03,22,16,19,11,24,06,08,28,18,,,1.6,0.9,1.3*39$GPRMC,041731.000,A,5212.8427,N,00006.0414,E,0.00,,090411,,,A*77$PTTKT,STAT,0,0,0,0,0*6D
$GPGGA,041732.000,5212.8427,N,00006.0414,E,1,10,0.9,18.7,M,47.0,M,,0000*60$GPGSA,A,3,03,22,16,19,11,24,06,08,28,18,,,1.6,0.9,1.3*39$GPGSV,3,1,12,19,84,259,41,03,56,144,41,22,53,082,41,06,46,133,40*7B$GPGSV,3,2,12,11,34,264,21,18,29,052,30,24,25,251,29,08,11,297,35*77$GPGSV,3,3,12,28,11,326,20,14,10,115,,16,08,177,39,32,05,198,27*71$GPRMC,041732.000,A,5212.8427,N,00006.0414,E,0.00,,090411,,,A*74$PTTKT,STAT,0,0,0,0,0*6D
$GPGGA,041733.000,5212.8427,N,00006.0414,E,1,10,0.9,18.7,M,47.0,M,,0000*61$GPGSA,A,3,03,22,16,19,11,24,06,08,28,18,,,1.6,0.9,1.3*39$GPRMC,041733.000,A,5212.8427,N,00006.0414,E,0.00,,090411,,,A*75$PTTKT,STAT,0,0,0,0,0*6D
$GPGGA,041734.000,5212.8427,N,00006.0414,E,1,10,0.9,18.7,M,47.0,M,,0000*66$GPGSA,A,3,03,22,16,19,11,24,06,08,28,18,,,1.6,0.9,1.3*39$GPRMC,041734.000,A,5212.8427,N,00006.0414,E,0.00,,090411,,,A*72$PTTKT,STAT,0,0,0,0,0*6D
$GPGGA,041735.000,5212.8427,N,00006.0414,E,1,10,0.9,18.7,M,47.0,M,,0000*67$GPGSA,A,3,03,22,16,19,11,24,06,08,28,18,,,1.6,0.9,1.3*39$GPRMC,041735.000,A,5212.8427,N,00006.0414,E,0.00,,090411,,,A*73$GPGGA,041736.000,5212.8427,N,00006.0414,E,1,10,0.9,18.7,M,47.0,M,,0000*64$GPGSA,A,3,03,22,16,19,11,24,06,08,28,18,,,1.6,0.9,1.3*39$GPRMC,041736.000,A,5212.8427,N,00006.0414,E,0.00,,090411,,,A*70$PTTKT,STAT,0,0,0,0,0*6D
$GPGGA,041737.000,5212.8427,N,00006.0414,E,1,10,0.9,18.7,M,47.0,M,,0000*65$GPGSA,A,3,03,22,16,19,11,24,06,08,28,18,,,1.6,0.9,1.3*39$GPGSV,3,1,12,19,84,259,41,03,56,144,41,22,53,082,41,06,46,133,40*7B$GPGSV,3,2,12,11,34,264,22,18,29,052,30,24,25,251,28,08,11,297,35*75$GPGSV,3,3,12,28,11,326,20,14,10,115,,16,08,177,39,32,05,198,27*71$GPRMC,041737.000,A,5212.8427,N,00006.0414,E,0.00,,090411,,,A*71$PTTKT,STAT,0,0,0,0,0*6D
$GPGGA,041738.000,5212.8427,N,00006.0414,E,1,10,0.9,18.7,M,47.0,M,,0000*6A$GPGSA,A,3,03,22,16,19,11,24,06,08,28,18,,,1.6,0.9,1.3*39$GPRMC,041738.000,A,5212.8427,N,00006.0414,E,0.00,,090411,,,A*7E$PTTKT,STAT,0,0,0,0,0*6D
$GPGGA,041739.000,5212.8427,N,00006.0414,E,1,10,0.9,18.7,M,47.0,M,,0000*6B$GPGSA,A,3,03,22,16,19,11,24,06,08,28,18,,,1.6,0.9,1.3*39$GPRMC,041739.000,A,5212.8427,N,00006.0414,E,0.00,,090411,,,A*7F$PTTKT,STAT,0,0,0,0,0*6D
$GPGGA,041740.000,5212.8427,N,00006.0414,E,1,10,0.9,18.7,M,47.0,M,,0000*65$GPGSA,A,3,03,22,16,19,11,24,06,08,28,18,,,1.6,0.9,1.3*39$GPRMC,041740.000,A,5212.8427,N,00006.0414,E,0.00,,090411,,,A*71$PTTKT,STAT,0,0,0,0,0*6D
$GPGGA,041741.000,5212.8427,N,00006.0414,E,1,10,0.9,18.7,M,47.0,M,,0000*64$GPGSA,A,3,03,22,16,19,11,24,06,08,28,18,,,1.6,0.9,1.3*39$GPRMC,041741.000,A,5212.8427,N,00006.0414,E,0.00,,090411,,,A*70$PTTKT,STAT,0,0,0,0,0*6D
$GPGGA,041742.000,5212.8427,N,00006.0414,E,1,10,0.9,18.7,M,47.0,M,,0000*67$GPGSA,A,3,03,22,16,19,11,24,06,08,28,18,,,1.6,0.9,1.3*39$GPGSV,3,1,12,19,84,259,41,03,56,144,41,22,53,082,41,06,46,133,41*7A$GPGSV,3,2,12,11,34,264,22,18,29,052,30,24,25,251,28,08,11,297,35*75$GPGSV,3,3,12,28,11,326,20,14,10,115,,16,08,177,39,32,05,198,27*71$GPRMC,041742.000,A,5212.8427,N,00006.0414,E,0.00,,090411,,,A*73$GPGGA,041743.000,5212.8427,N,00006.0414,E,1,10,0.9,18.7,M,47.0,M,,0000*66$GPGSA,A,3,03,22,16,19,11,24,06,08,28,18,,,1.6,0.9,1.3*39$GPRMC,041743.000,A,5212.8427,N,00006.0414,E,0.00,,090411,,,A*72$PTTKT,STAT,0,0,0,0,0*6D
$GPGGA,041744.000,5212.8427,N,00006.0414,E,1,10,0.9,18.7,M,47.0,M,,0000*61$GPGSA,A,3,03,22,16,19,11,24,06,08,28,18,,,1.6,0.9,1.3*39$GPRMC,041744.000,A,5212.8427,N,00006.0414,E,0.00,,090411,,,A*75$PTTKT,STAT,0,0,0,0,0*6D
$GPGGA,041745.000,5212.8427,N,00006.0414,E,1,10,0.9,18.7,M,47.0,M,,0000*60$GPGSA,A,3,03,22,16,19,11,24,06,08,28,18,,,1.6,0.9,1.3*39$GPRMC,041745.000,A,5212.8427,N,00006.0414,E,0.00,,090411,,,A*74$PTTKT,STAT,0,0,0,0,0*6D
$GPGGA,041746.000,5212.8427,N,00006.0414,E,1,10,0.9,18.7,M,47.0,M,,0000*63$GPGSA,A,3,03,22,16,19,11,24,06,08,28,18,,,1.6,0.9,1.3*39$GPRMC,041746.000,A,5212.8427,N,00006.0414,E,0.00,,090411,,,A*77$PTTKT,STAT,0,0,0,0,0*6D
$GPGGA,041747.000,5212.8427,N,00006.0414,E,1,10,0.9,18.7,M,47.0,M,,0000*62$GPGSA,A,3,03,22,16,19,11,24,06,08,28,18,,,1.6,0.9,1.3*39$GPGSV,3,1,12,19,84,259,41,03,56,144,41,22,53,082,41,06,46,133,41*7A$GPGSV,3,2,12,11,34,264,22,18,29,052,31,24,25,251,28,08,11,297,35*74$GPGSV,3,3,12,28,11,326,20,14,10,115,,16,08,177,39,32,05,198,27*71$GPRMC,041747.000,A,5212.8427,N,00006.0414,E,0.00,,090411,,,A*76$PTTKT,STAT,0,0,0,0,0*6D
$GPGGA,041748.000,5212.8427,N,00006.0414,E,1,10,0.9,18.7,M,47.0,M,,0000*6D$GPGSA,A,3,03,22,16,19,11,24,06,08,28,18,,,1.6,0.9,1.3*39$GPRMC,041748.000,A,5212.8427,N,00006.0414,E,0.00,,090411,,,A*79$PTTKT,STAT,0,0,0,0,0*6D
$GPGGA,041749.000,5212.8427,N,00006.0414,E,1,10,0.9,18.7,M,47.0,M,,0000*6C$GPGSA,A,3,03,22,16,19,11,24,06,08,28,18,,,1.6,0.9,1.3*39$GPRMC,041749.000,A,5212.8427,N,00006.0414,E,0.00,,090411,,,A*78$PTTKT,STAT,0,0,0,0,0*6D
$GPGGA,041750.000,5212.8427,N,00006.0414,E,1,10,0.9,18.7,M,47.0,M,,0000*64$GPGSA,A,3,03,22,16,19,11,24,06,08,28,18,,,1.6,0.9,1.3*39$GPRMC,041750.000,A,5212.8427,N,00006.0414,E,0.00,,090411,,,A*70$PTTKT,STAT,0,0,0,0,0*6D
$GPGGA,041751.000,5212.8427,N,00006.0414,E,1,10,0.9,18.7,M,47.0,M,,0000*65$GPGSA,A,3,03,22,16,19,11,24,06,08,28,18,,,1.6,0.9,1.3*39$GPRMC,041751.000,A,5212.8427,N,00006.0414,E,0.00,,090411,,,A*71$GPGGA,041752.000,5212.8427,N,00006.0414,E,1,10,0.9,18.7,M,47.0,M,,0000*66$GPGSA,A,3,03,22,16,19,11,24,06,08,28,18,,,1.6,0.9,1.3*39$GPGSV,3,1,12,19,84,259,40,03,56,144,40,22,53,082,41,06,46,133,41*7A$GPGSV,3,2,12,11,34,264,22,18,29,052,31,24,25,251,27,08,11,297,35*7B$GPGSV,3,3,12,28,11,326,20,14,10,115,,16,08,177,39,32,05,198,27*71$GPRMC,041752.000,A,5212.8427,N,00006.0414,E,0.00,,090411,,,A*72$PTTKT,STAT,0,0,0,0,0*6D
$GPGGA,041753.000,5212.8427,N,00006.0414,E,1,10,0.9,18.7,M,47.0,M,,0000*67$GPGSA,A,3,03,22,16,19,11,24,06,08,28,18,,,1.6,0.9,1.3*39$GPRMC,041753.000,A,5212.8427,N,00006.0414,E,0.00,,090411,,,A*73$PTTKT,STAT,0,0,0,0,0*6D
$GPGGA,041754.000,5212.8427,N,00006.0414,E,1,10,0.9,18.7,M,47.0,M,,0000*60$GPGSA,A,3,03,22,16,19,11,24,06,08,28,18,,,1.6,0.9,1.3*39$GPRMC,041754.000,A,5212.8427,N,00006.0414,E,0.00,,090411,,,A*74$PTTKT,STAT,0,0,0,0,0*6D
$GPGGA,041755.000,5212.8427,N,00006.0414,E,1,10,0.9,18.7,M,47.0,M,,0000*61$GPGSA,A,3,03,22,16,19,11,24,06,08,28,18,,,1.6,0.9,1.3*39$GPRMC,041755.000,A,5212.8427,N,00006.0414,E,0.00,,090411,,,A*75$PTTKT,STAT,0,0,0,0,0*6D
$GPGGA,041756.000,5212.8427,N,00006.0414,E,1,10,0.9,18.7,M,47.0,M,,0000*62$GPGSA,A,3,03,22,16,19,11,24,06,08,28,18,,,1.6,0.9,1.3*39$GPRMC,041756.000,A,5212.8427,N,00006.0414,E,0.00,,090411,,,A*76$PTTKT,STAT,0,0,0,0,0*6D
$GPGGA,041757.000,5212.8427,N,00006.0414,E,1,10,0.9,18.7,M,47.0,M,,0000*63$GPGSA,A,3,03,22,16,19,11,24,06,08,28,18,,,1.6,0.9,1.3*39$GPGSV,3,1,12,19,84,259,40,03,56,144,40,22,53,082,41,06,46,133,41*7A$GPGSV,3,2,12,11,34,264,22,18,29,052,32,24,25,251,26,08,11,297,35*79$GPGSV,3,3,12,28,11,326,20,14,10,115,,16,08,177,38,32,05,198,27*70$GPRMC,041757.000,A,5212.8427,N,00006.0414,E,0.00,,090411,,,A*77$PTTKT,STAT,0,0,0,0,0*6D
$GPGGA,041758.000,5212.8427,N,00006.0414,E,1,10,0.9,18.7,M,47.0,M,,0000*6C$GPGSA,A,3,03,22,16,19,11,24,06,08,28,18,,,1.6,0.9,1.3*39$GPRMC,041758.000,A,5212.8427,N,00006.0414,E,0.00,,090411,,,A*78$PTTKT,STAT,0,0,0,0,0*6D
$GPGGA,041759.000,5212.8427,N,00006.0414,E,1,10,0.9,18.7,M,47.0,M,,0000*6D$GPGSA,A,3,03,22,16,19,11,24,06,08,28,18,,,1.6,0.9,1.3*39$GPRMC,041759.000,A,5212.8427,N,00006.0414,E,0.00,,090411,,,A*79$GPGGA,041800.000,5212.8427,N,00006.0414,E,1,10,0.9,18.7,M,47.0,M,,0000*6E$GPGSA,A,3,03,22,16,19,11,24,06,08,28,18,,,1.6,0.9,1.3*39$GPRMC,041800.000,A,5212.8427,N,00006.0414,E,0.00,,090411,,,A*7A$PTTKT,STAT,0,0,0,0,0*6D
$GPGGA,041801.000,5212.8427,N,00006.0414,E,1,10,0.9,18.7,M,47.0,M,,0000*6F$GPGSA,A,3,03,22,16,19,11,24,06,08,28,18,,,1.6,0.9,1.3*39$GPRMC,041801.000,A,5212.8427,N,00006.0414,E,0.00,,090411,,,A*7B$PTTKT,STAT,0,0,0,0,0*6D
$GPGGA,041802.000,5212.8427,N,00006.0414,E,1,10,0.9,18.7,M,47.0,M,,0000*6C$GPGSA,A,3,03,22,16,19,11,24,06,08,28,18,,,1.6,0.9,1.3*39$GPGSV,3,1,12,19,84,259,40,03,56,144,39,22,53,082,41,06,46,133,41*74$GPGSV,3,2,12,11,34,264,21,18,29,052,32,24,25,251,26,08,11,297,35*7A$GPGSV,3,3,12,28,11,326,20,14,10,115,,16,08,177,38,32,05,198,26*71$GPRMC,041802.000,A,5212.8427,N,00006.0414,E,0.00,,090411,,,A*78$PTTKT,STAT,0,0,0,0,0*6D
$GPGGA,041803.000,5212.8427,N,00006.0414,E,1,10,0.9,18.7,M,47.0,M,,0000*6D$GPGSA,A,3,03,22,16,19,11,24,06,08,28,18,,,1.6,0.9,1.3*39$GPRMC,041803.000,A,5212.8427,N,00006.0414,E,0.00,,090411,,,A*79$PTTKT,STAT,0,0,0,0,0*6D
$GPGGA,041804.000,5212.8427,N,00006.0414,E,1,10,0.9,18.7,M,47.0,M,,0000*6A$GPGSA,A,3,03,22,16,19,11,24,06,08,28,18,,,1.6,0.9,1.3*39$GPRMC,041804.000,A,5212.8427,N,00006.0414,E,0.00,,090411,,,A*7E$PTTKT,STAT,0,0,0,0,0*6D
$GPGGA,041805.000,5212.8427,N,00006.0414,E,1,10,0.9,18.7,M,47.0,M,,0000*6B$GPGSA,A,3,03,22,16,19,11,24,06,08,28,18,,,1.6,0.9,1.3*39$GPRMC,041805.000,A,5212.8427,N,00006.0414,E,0.00,,090411,,,A*7F$PTTKT,STAT,0,0,0,0,0*6D
$GPGGA,041806.000,5212.8427,N,00006.0414,E,1,10,0.9,18.7,M,47.0,M,,0000*68$GPGSA,A,3,03,22,16,19,11,24,06,08,28,18,,,1.6,0.9,1.3*39$GPRMC,041806.000,A,5212.8427,N,00006.0414,E,0.00,,090411,,,A*7C$PTTKT,STAT,0,0,0,0,0*6D
$GPGGA,041807.000,5212.8427,N,00006.0414,E,1,10,0.9,18.7,M,47.0,M,,0000*69$GPGSA,A,3,03,22,16,19,11,24,06,08,28,18,,,1.6,0.9,1.3*39$GPGSV,3,1,12,19,84,259,40,03,56,144,39,22,53,082,41,06,46,133,41*74$GPGSV,3,2,12,11,34,264,21,18,29,052,33,24,25,251,25,08,11,297,35*78$GPGSV,3,3,12,28,11,326,21,14,10,115,,16,08,177,38,32,05,198,26*70$GPRMC,041807.000,A,5212.8427,N,00006.0414,E,0.00,,090411,,,A*7D$PTTKT,STAT,0,0,0,0,0*6D
$GPGGA,041808.000,5212.8427,N,00006.0414,E,1,10,0.9,18.7,M,47.0,M,,0000*66$GPGSA,A,3,03,22,16,19,11,24,06,08,28,18,,,1.6,0.9,1.3*39$GPRMC,041808.000,A,5212.8427,N,00006.0414,E,0.00,,090411,,,A*72$GPGGA,041809.000,5212.8427,N,00006.0414,E,1,10,0.9,18.7,M,47.0,M,,0000*67$GPGSA,A,3,03,22,16,19,11,24,06,08,28,18,,,1.6,0.9,1.3*39$GPRMC,041809.000,A,5212.8427,N,00006.0414,E,0.00,,090411,,,A*73$PTTKT,STAT,0,0,0,0,0*6D
$GPGGA,041810.000,5212.8427,N,00006.0414,E,1,10,0.9,18.7,M,47.0,M,,0000*6F$GPGSA,A,3,03,22,16,19,11,24,06,08,28,18,,,1.6,0.9,1.3*39$GPRMC,041810.000,A,5212.8427,N,00006.0414,E,0.00,,090411,,,A*7B$PTTKT,STAT,0,0,0,0,0*6D
$GPGGA,041811.000,5212.8427,N,00006.0414,E,1,10,0.9,18.7,M,47.0,M,,0000*6E$GPGSA,A,3,03,22,16,19,11,24,06,08,28,18,,,1.6,0.9,1.3*39$GPRMC,041811.000,A,5212.8427,N,00006.0414,E,0.00,,090411,,,A*7A$PTTKT,STAT,0,0,0,0,0*6D
$GPGGA,041812.000,5212.8427,N,00006.0414,E,1,10,0.9,18.7,M,47.0,M,,0000*6D$GPGSA,A,3,03,22,16,19,11,24,06,08,28,18,,,1.6,0.9,1.3*39$GPGSV,3,1,12,19,84,259,41,03,56,144,39,22,53,082,41,06,46,133,41*75$GPGSV,3,2,12,11,34,264,21,18,29,052,33,24,25,251,21,08,11,297,35*7C$GPGSV,3,3,12,28,11,326,21,14,10,115,,16,08,177,39,32,05,198,26*71$GPRMC,041812.000,A,5212.8427,N,00006.0414,E,0.00,,090411,,,A*79$PTTKT,STAT,0,0,0,0,0*6D
$GPGGA,041813.000,5212.8427,N,00006.0414,E,1,09,0.9,18.7,M,47.0,M,,0000*64$GPGSA,A,3,03,22,16,19,11,06,08,28,18,,,,1.6,0.9,1.3*3F$GPRMC,041813.000,A,5212.8427,N,00006.0414,E,0.00,,090411,,,A*78$PTTKT,STAT,0,0,0,0,0*6D
$GPGGA,041814.000,5212.8427,N,00006.0414,E,1,09,0.9,18.7,M,47.0,M,,0000*63$GPGSA,A,3,03,22,16,19,11,06,08,28,18,,,,1.6,0.9,1.3*3F$GPRMC,041814.000,A,5212.8427,N,00006.0414,E,0.00,,090411,,,A*7F$PTTKT,STAT,0,0,0,0,0*6D
$GPGGA,041815.000,5212.8427,N,00006.0414,E,1,09,0.9,18.7,M,47.0,M,,0000*62$GPGSA,A,3,03,22,16,19,11,06,08,28,18,,,,1.6,0.9,1.3*3F$GPRMC,041815.000,A,5212.8427,N,00006.0414,E,0.00,,090411,,,A*7E$PTTKT,STAT,0,0,0,0,0*6D
$GPGGA,041816.000,5212.8427,N,00006.0414,E,1,09,0.9,18.7,M,47.0,M,,0000*61$GPGSA,A,3,03,22,16,19,11,06,08,28,18,,,,1.6,0.9,1.3*3F$GPRMC,041816.000,A,5212.8427,N,00006.0414,E,0.00,,090411,,,A*7D$GPGGA,041817.000,5212.8427,N,00006.0414,E,1,09,0.9,18.7,M,47.0,M,,0000*60$GPGSA,A,3,03,22,16,19,11,06,08,28,18,,,,1.6,0.9,1.3*3F$GPGSV,3,1,12,19,84,259,41,03,56,144,39,22,53,082,41,06,46,133,41*75$GPGSV,3,2,12,11,34,264,21,18,29,052,34,24,25,251,,08,11,297,35*78$GPGSV,3,3,12,28,11,326,21,14,10,115,24,16,08,177,39,32,05,198,26*77$GPRMC,041817.000,A,5212.8427,N,00006.0414,E,0.00,,090411,,,A*7C$PTTKT,STAT,0,0,0,0,0*6D
$GPGGA,041818.000,5212.8427,N,00006.0414,E,1,09,0.9,18.7,M,47.0,M,,0000*6F$GPGSA,A,3,03,22,16,19,11,06,08,28,18,,,,1.6,0.9,1.3*3F$GPRMC,041818.000,A,5212.8427,N,00006.0414,E,0.00,,090411,,,A*73$PTTKT,STAT,0,0,0,0,0*6D
$GPGGA,041819.000,5212.8427,N,00006.0414,E,1,09,0.9,18.7,M,47.0,M,,0000*6E$GPGSA,A,3,03,22,16,19,11,06,08,28,18,,,,1.6,0.9,1.3*3F$GPRMC,041819.000,A,5212.8427,N,00006.0414,E,0.00,,090411,,,A*72$PTTKT,STAT,0,0,0,0,0*6D
$GPGGA,041820.000,5212.8427,N,00006.0414,E,1,09,0.9,18.7,M,47.0,M,,0000*64$GPGSA,A,3,03,22,16,19,11,06,08,28,18,,,,1.6,0.9,1.3*3F$GPRMC,041820.000,A,5212.8427,N,00006.0414,E,0.00,,090411,,,A*78$PTTKT,STAT,0,0,0,0,0*6D
$GPGGA,041821.000,5212.8427,N,00006.0414,E,1,09,0.9,18.7,M,47.0,M,,0000*65$GPGSA,A,3,03,22,16,19,11,06,08,28,18,,,,1.6,0.9,1.3*3F$GPRMC,041821.000,A,5212.8427,N,00006.0414,E,0.00,,090411,,,A*79$PTTKT,STAT,0,0,0,0,0*6D
$GPGGA,041822.000,5212.8427,N,00006.0414,E,1,09,0.9,18.7,M,47.0,M,,0000*66$GPGSA,A,3,03,22,16,19,11,06,08,28,18,,,,1.6,0.9,1.3*3F$GPGSV,3,1,12,19,84,259,41,03,56,144,39,22,53,082,41,06,46,133,41*75$GPGSV,3,2,12,11,34,264,21,18,29,052,34,24,25,251,,08,11,297,35*78$GPGSV,3,3,12,28,11,326,20,14,10,115,24,16,08,177,39,32,05,198,26*76$GPRMC,041822.000,A,5212.8427,N,00006.0414,E,0.00,,090411,,,A*7A$PTTKT,STAT,0,0,0,0,0*6D
$GPGGA,041823.000,5212.8427,N,00006.0414,E,1,09,0.9,18.7,M,47.0,M,,0000*67$GPGSA,A,3,03,22,16,19,11,06,08,28,18,,,,1.6,0.9,1.3*3F$GPRMC,041823.000,A,5212.8427,N,00006.0414,E,0.00,,090411,,,A*7B$PTTKT,STAT,0,0,0,0,0*6D
$GPGGA,041824.000,5212.8427,N,00006.0414,E,1,09,0.9,18.7,M,47.0,M,,0000*60$GPGSA,A,3,03,22,16,19,11,06,08,28,18,,,,1.6,0.9,1.3*3F$GPRMC,041824.000,A,5212.8427,N,00006.0414,E,0.00,,090411,,,A*7C$PTTKT,STAT,0,0,0,0,0*6D
$GPGGA,041825.000,5212.8427,N,00006.0414,E,1,09,0.9,18.7,M,47.0,M,,0000*61$GPGSA,A,3,03,22,16,19,11,06,08,28,18,,,,1.6,0.9,1.3*3F$GPRMC,041825.000,A,5212.8427,N,00006.0414,E,0.00,,090411,,,A*7D$GPGGA,041826.000,5212.8427,N,00006.0414,E,1,09,0.9,18.7,M,47.0,M,,0000*62$GPGSA,A,3,03,22,16,19,11,06,08,28,18,,,,1.6,0.9,1.3*3F$GPRMC,041826.000,A,5212.8427,N,00006.0414,E,0.00,,090411,,,A*7E$PTTKT,STAT,0,0,0,0,0*6D
$GPGGA,041827.000,5212.8427,N,00006.0414,E,1,09,0.9,18.7,M,47.0,M,,0000*63$GPGSA,A,3,03,22,16,19,11,06,08,28,18,,,,1.6,0.9,1.3*3F$GPGSV,3,1,12,19,84,259,41,03,56,144,39,22,53,082,41,06,46,133,41*75$GPGSV,3,2,12,11,34,264,21,18,29,052,34,24,25,251,,08,11,297,34*79$GPGSV,3,3,12,28,11,326,20,14,10,115,25,16,08,177,39,32,05,198,26*77$GPRMC,041827.000,A,5212.8427,N,00006.0414,E,0.00,,090411,,,A*7F$PTTKT,STAT,0,0,0,0,0*6D
$GPGGA,041828.000,5212.8427,N,00006.0414,E,1,09,0.9,18.7,M,47.0,M,,0000*6C$GPGSA,A,3,03,22,16,19,11,06,08,28,18,,,,1.6,0.9,1.3*3F$GPRMC,041828.000,A,5212.8427,N,00006.0414,E,0.00,,090411,,,A*70$PTTKT,STAT,0,0,0,0,0*6D
$GPGGA,041829.000,5212.8427,N,00006.0414,E,1,09,0.9,18.7,M,47.0,M,,0000*6D$GPGSA,A,3,03,22,16,19,11,06,08,28,18,,,,1.6,0.9,1.3*3F$GPRMC,041829.000,A,5212.8427,N,00006.0414,E,0.00,,090411,,,A*71$PTTKT,STAT,0,0,0,0,0*6D
$GPGGA,041830.000,5212.8427,N,00006.0414,E,1,09,0.9,18.7,M,47.0,M,,0000*65$GPGSA,A,3,03,22,16,19,11,06,08,28,18,,,,1.6,0.9,1.3*3F$GPRMC,041830.000,A,5212.8427,N,00006.0414,E,0.00,,090411,,,A*79$PTTKT,STAT,0,0,0,0,0*6D
$GPGGA,041831.000,5212.8427,N,00006.0414,E,1,09,0.9,18.7,M,47.0,M,,0000*64$GPGSA,A,3,03,22,16,19,11,06,08,28,18,,,,1.6,0.9,1.3*3F$GPRMC,041831.000,A,5212.8427,N,00006.0414,E,0.00,,090411,,,A*78$PTTKT,STAT,0,0,0,0,0*6D
$GPGGA,041832.000,5212.8427,N,00006.0414,E,1,09,0.9,18.7,M,47.0,M,,0000*67$GPGSA,A,3,03,22,16,19,11,06,08,28,18,,,,1.6,0.9,1.3*3F$GPGSV,3,1,12,19,84,259,41,03,56,144,39,22,53,082,41,06,46,133,41*75$GPGSV,3,2,12,11,34,264,21,18,29,052,34,24,25,251,,08,11,297,34*79$GPGSV,3,3,12,28,11,326,20,14,10,115,25,16,08,177,39,32,05,198,27*76$GPRMC,041832.000,A,5212.8427,N,00006.0414,E,0.00,,090411,,,A*7B$PTTKT,STAT,0,0,0,0,0*6D
$GPGGA,041833.000,5212.8427,N,00006.0414,E,1,09,0.9,18.7,M,47.0,M,,0000*66$GPGSA,A,3,03,22,16,19,11,06,08,28,18,,,,1.6,0.9,1.3*3F$GPRMC,041833.000,A,5212.8427,N,00006.0414,E,0.00,,090411,,,A*7A$GPGGA,041834.000,5212.8427,N,00006.0414,E,1,09,0.9,18.7,M,47.0,M,,0000*61$GPGSA,A,3,03,22,16,19,11,06,08,28,18,,,,1.6,0.9,1.3*3F$GPRMC,041834.000,A,5212.8427,N,00006.0414,E,0.00,,090411,,,A*7D$PTTKT,STAT,0,0,0,0,0*6D
$GPGGA,041835.000,5212.8427,N,00006.0414,E,1,09,0.9,18.7,M,47.0,M,,0000*60$GPGSA,A,3,03,22,16,19,11,06,08,28,18,,,,1.6,0.9,1.3*3F$GPRMC,041835.000,A,5212.8427,N,00006.0414,E,0.00,,090411,,,A*7C$PTTKT,STAT,0,0,0,0,0*6D
$GPGGA,041836.000,5212.8427,N,00006.0414,E,1,09,0.9,18.7,M,47.0,M,,0000*63$GPGSA,A,3,03,22,16,19,11,06,08,28,18,,,,1.6,0.9,1.3*3F$GPRMC,041836.000,A,5212.8427,N,00006.0414,E,0.00,,090411,,,A*7F$PTTKT,STAT,0,0,0,0,0*6D
$GPGGA,041837.000,5212.8427,N,00006.0414,E,1,10,0.9,18.7,M,47.0,M,,0000*6A$GPGSA,A,3,03,22,16,19,24,11,06,08,28,18,,,1.6,0.9,1.3*39$GPGSV,3,1,12,19,84,259,42,03,56,144,39,22,53,082,41,06,46,133,41*76$GPGSV,3,2,12,11,34,264,22,18,29,052,34,24,25,251,23,08,11,297,34*7B$GPGSV,3,3,12,28,11,326,20,14,10,115,25,16,08,177,39,32,05,198,27*76$GPRMC,041837.000,A,5212.8427,N,00006.0414,E,0.00,,090411,,,A*7E$PTTKT,STAT,0,0,0,0,0*6D
$GPGGA,041838.000,5212.8427,N,00006.0414,E,1,10,0.9,18.7,M,47.0,M,,0000*65$GPGSA,A,3,03,22,16,19,24,11,06,08,28,18,,,1.6,0.9,1.3*39$GPRMC,041838.000,A,5212.8427,N,00006.0414,E,0.00,,090411,,,A*71$PTTKT,STAT,0,0,0,0,0*6D
$GPGGA,041839.000,5212.8427,N,00006.0414,E,1,10,0.9,18.7,M,47.0,M,,0000*64$GPGSA,A,3,03,22,16,19,24,11,06,08,28,18,,,1.6,0.9,1.3*39$GPRMC,041839.000,A,5212.8427,N,00006.0414,E,0.00,,090411,,,A*70$PTTKT,STAT,0,0,0,0,0*6D
$GPGGA,041840.000,5212.8427,N,00006.0414,E,1,10,0.9,18.7,M,47.0,M,,0000*6A$GPGSA,A,3,03,22,16,19,24,11,06,08,28,18,,,1.6,0.9,1.3*39$GPRMC,041840.000,A,5212.8427,N,00006.0414,E,0.00,,090411,,,A*7E$PTTKT,STAT,0,0,0,0,0*6D
$GPGGA,041841.000,5212.8427,N,00006.0414,E,1,10,0.9,18.7,M,47.0,M,,0000*6B$GPGSA,A,3,03,22,16,19,24,11,06,08,28,18,,,1.6,0.9,1.3*39$GPRMC,041841.000,A,5212.8427,N,00006.0414,E,0.00,,090411,,,A*7F$GPGGA,041842.000,5212.8427,N,00006.0414,E,1,10,0.9,18.7,M,47.0,M,,0000*68$GPGSA,A,3,03,22,16,19,24,11,06,08,28,18,,,1.6,0.9,1.3*39$GPGSV,3,1,12,19,84,259,42,03,56,144,39,22,53,082,41,06,46,133,41*76$GPGSV,3,2,12,11,34,264,22,18,29,052,34,24,25,251,24,08,11,297,33*7B$GPGSV,3,3,12,28,11,326,19,14,10,115,24,16,08,177,39,32,05,198,27*7D$GPRMC,041842.000,A,5212.8427,N,00006.0414,E,0.00,,090411,,,A*7C$PTTKT,STAT,0,0,0,0,0*6D
$GPGGA,041843.000,5212.8427,N,00006.0414,E,1,10,0.9,18.7,M,47.0,M,,0000*69$GPGSA,A,3,03,22,16,19,24,11,06,08,28,18,,,1.6,0.9,1.3*39$GPRMC,041843.000,A,5212.8427,N,00006.0414,E,0.00,,090411,,,A*7D$PTTKT,STAT,0,0,0,0,0*6D
$GPGGA,041844.000,5212.8427,N,00006.0414,E,1,10,0.9,18.7,M,47.0,M,,0000*6E$GPGSA,A,3,03,22,16,19,24,11,06,08,28,18,,,1.6,0.9,1.3*39$GPRMC,041844.000,A,5212.8427,N,00006.0414,E,0.00,,090411,,,A*7A$PTTKT,STAT,0,0,0,0,0*6D
$GPGGA,041845.000,5212.8427,N,00006.0414,E,1,10,0.9,18.7,M,47.0,M,,0000*6F$GPGSA,A,3,03,22,16,19,24,11,06,08,28,18,,,1.6,0.9,1.3*39$GPRMC,041845.000,A,5212.8427,N,00006.0414,E,0.00,,090411,,,A*7B$PTTKT,STAT,0,0,0,0,0*6D
$GPGGA,041846.000,5212.8427,N,00006.0414,E,1,10,0.9,18.7,M,47.0,M,,0000*6C$GPGSA,A,3,03,22,16,19,24,11,06,08,28,18,,,1.6,0.9,1.3*39$GPRMC,041846.000,A,5212.8427,N,00006.0414,E,0.00,,090411,,,A*78$PTTKT,STAT,0,0,0,0,0*6D
$GPGGA,041847.000,5212.8427,N,00006.0414,E,1,10,0.9,18.7,M,47.0,M,,0000*6D$GPGSA,A,3,03,22,16,19,24,11,06,08,28,18,,,1.6,0.9,1.3*39$GPGSV,3,1,12,19,84,259,41,03,56,144,39,22,53,082,40,06,46,133,41*74$GPGSV,3,2,12,11,34,264,22,18,29,052,34,24,25,251,24,08,11,297,33*7B$GPGSV,3,3,12,28,11,326,17,14,10,115,24,16,08,177,39,32,05,198,27*73$GPRMC,041847.000,A,5212.8427,N,00006.0414,E,0.00,,090411,,,A*79$PTTKT,STAT,0,0,0,0,0*6D
$GPGGA,041848.000,5212.8427,N,00006.0414,E,1,10,0.9,18.7,M,47.0,M,,0000*62$GPGSA,A,3,03,22,16,19,24,11,06,08,28,18,,,1.6,0.9,1.3*39$GPRMC,041848.000,A,5212.8427,N,00006.0414,E,0.00,,090411,,,A*76$GPGGA,041849.000,5212.8427,N,00006.0414,E,1,10,0.9,18.7,M,47.0,M,,0000*63$GPGSA,A,3,03,22,16,19,24,11,06,08,28,18,,,1.6,0.9,1.3*39$GPRMC,041849.000,A,5212.8427,N,00006.0414,E,0.00,,090411,,,A*77$PTTKT,STAT,0,0,0,0,0*6D
$GPGGA,041850.000,5212.8427,N,00006.0414,E,1,10,0.9,18.7,M,47.0,M,,0000*6B$GPGSA,A,3,03,22,16,19,24,11,06,08,28,18,,,1.6,0.9,1.3*39$GPRMC,041850.000,A,5212.8427,N,00006.0414,E,0.00,,090411,,,A*7F$PTTKT,STAT,0,0,0,0,0*6D
$GPGGA,041851.000,5212.8427,N,00006.0414,E,1,10,0.9,18.7,M,47.0,M,,0000*6A$GPGSA,A,3,03,22,16,19,24,11,06,08,28,18,,,1.6,0.9,1.3*39$GPRMC,041851.000,A,5212.8427,N,00006.0414,E,0.00,,090411,,,A*7E$PTTKT,STAT,0,0,0,0,0*6D
$GPGGA,041852.000,5212.8427,N,00006.0414,E,1,10,0.9,18.7,M,47.0,M,,0000*69$GPGSA,A,3,03,22,16,19,24,11,06,08,28,18,,,1.6,0.9,1.3*39$GPGSV,3,1,12,19,84,259,41,03,56,144,40,22,53,082,40,06,46,133,41*7A$GPGSV,3,2,12,11,34,264,21,18,29,052,34,24,25,251,24,08,11,297,33*78$GPGSV,3,3,12,28,11,326,16,14,10,115,24,16,08,177,39,32,05,198,27*72$GPRMC,041852.000,A,5212.8427,N,00006.0414,E,0.00,,090411,,,A*7D$PTTKT,STAT,0,0,0,0,0*6D
$GPGGA,041853.000,5212.8427,N,00006.0414,E,1,10,0.9,18.7,M,47.0,M,,0000*68$GPGSA,A,3,03,22,16,19,24,11,06,08,28,18,,,1.6,0.9,1.3*39$GPRMC,041853.000,A,5212.8427,N,00006.0414,E,0.00,,090411,,,A*7C$PTTKT,STAT,0,0,0,0,0*6D
$GPGGA,041854.000,5212.8427,N,00006.0414,E,1,10,0.9,18.7,M,47.0,M,,0000*6F$GPGSA,A,3,03,22,16,19,24,11,06,08,28,18,,,1.6,0.9,1.3*39$GPRMC,041854.000,A,5212.8427,N,00006.0414,E,0.00,,090411,,,A*7B$PTTKT,STAT,0,0,0,0,0*6D
$GPGGA,041855.000,5212.8427,N,00006.0414,E,1,10,0.9,18.7,M,47.0,M,,0000*6E$GPGSA,A,3,03,22,16,19,24,11,06,08,28,18,,,1.6,0.9,1.3*39$GPRMC,041855.000,A,5212.8427,N,00006.0414,E,0.00,,090411,,,A*7A$PTTKT,STAT,0,0,0,0,0*6D
$GPGGA,041856.000,5212.8427,N,00006.0414,E,1,09,1.0,18.7,M,47.0,M,,0000*6D$GPGSA,A,3,03,22,16,19,24,11,06,08,18,,,,1.7,1.0,1.4*3D$GPRMC,041856.000,A,5212.8427,N,00006.0414,E,0.00,,090411,,,A*79$GPGGA,041857.000,5212.8427,N,00006.0414,E,1,09,1.0,18.7,M,47.0,M,,0000*6C$GPGSA,A,3,03,22,16,19,24,11,06,08,18,,,,1.7,1.0,1.4*3D$GPGSV,3,1,12,19,84,259,41,03,56,144,39,22,53,082,40,06,46,133,41*74$GPGSV,3,2,12,11,34,264,20,18,29,052,31,24,25,251,24,08,11,297,29*77$GPGSV,3,3,12,28,11,326,12,14,10,115,24,16,08,177,38,32,05,198,26*76$GPRMC,041857.000,A,5212.8427,N,00006.0414,E,0.00,,090411,,,A*78$PTTKT,STAT,0,0,0,0,0*6D
$GPGGA,041858.000,5212.8427,N,00006.0414,E,1,08,1.0,18.7,M,47.0,M,,0000*62$GPGSA,A,3,03,22,16,19,24,06,08,18,,,,,1.7,1.0,1.4*3D$GPRMC,041858.000,A,5212.8427,N,00006.0414,E,0.00,,090411,,,A*77$PTTKT,STAT,0,0,0,0,0*6D
$GPGGA,041859.000,5212.8427,N,00006.0414,E,1,08,1.0,18.7,M,47.0,M,,0000*63$GPGSA,A,3,03,22,16,19,24,06,08,18,,,,,1.7,1.0,1.4*3D$GPRMC,041859.000,A,5212.8427,N,00006.0414,E,0.00,,090411,,,A*76$PTTKT,STAT,0,0,0,0,0*6D
$GPGGA,041900.000,5212.8427,N,00006.0414,E,1,08,1.0,18.7,M,47.0,M,,0000*6E$GPGSA,A,3,03,22,16,19,24,06,08,18,,,,,1.7,1.0,1.4*3D$GPRMC,041900.000,A,5212.8427,N,00006.0414,E,0.00,,090411,,,A*7B$PTTKT,STAT,0,0,0,0,0*6D
$GPGGA,041901.000,5212.8427,N,00006.0414,E,1,09,0.9,18.7,M,47.0,M,,0000*66$GPGSA,A,3,03,22,16,19,24,06,08,28,18,,,,1.6,0.9,1.3*39$GPRMC,041901.000,A,5212.8427,N,00006.0414,E,0.00,,090411,,,A*7A$PTTKT,STAT,0,0,0,0,0*6D
$GPGGA,041902.000,5212.8427,N,00006.0414,E,1,09,0.9,18.7,M,47.0,M,,0000*65$GPGSA,A,3,03,22,16,19,24,06,08,28,18,,,,1.6,0.9,1.3*39$GPGSV,3,1,12,19,84,259,40,03,56,144,39,22,53,082,39,06,46,133,40*7A$GPGSV,3,2,12,11,34,264,,18,29,052,31,24,25,251,23,08,11,297,29*72$GPGSV,3,3,12,28,11,326,15,14,10,115,23,16,08,177,38,32,05,198,23*73$GPRMC,041902.000,A,5212.8427,N,00006.0414,E,0.00,,090411,,,A*79$PTTKT,STAT,0,0,0,0,0*6D
$GPGGA,041903.000,5212.8427,N,00006.0414,E,1,09,0.9,18.7,M,47.0,M,,0000*64$GPGSA,A,3,03,22,16,19,24,06,08,28,18,,,,1.6,0.9,1.3*39$GPRMC,041903.000,A,5212.8427,N,00006.0414,E,0.00,,090411,,,A*78$GPGGA,041904.000,5212.8427,N,00006.0414,E,1,09,0.9,18.7,M,47.0,M,,0000*63$GPGSA,A,3,03,22,16,19,24,06,08,28,18,,,,1.6,0.9,1.3*39$GPRMC,041904.000,A,5212.8427,N,00006.0414,E,0.00,,090411,,,A*7F$PTTKT,STAT,0,0,0,0,0*6D
$GPGGA,041905.000,5212.8427,N,00006.0414,E,1,09,0.9,18.7,M,47.0,M,,0000*62$GPGSA,A,3,03,22,16,19,24,06,08,28,18,,,,1.6,0.9,1.3*39$GPRMC,041905.000,A,5212.8427,N,00006.0414,E,0.00,,090411,,,A*7E$PTTKT,STAT,0,0,0,0,0*6D
$GPGGA,041906.000,5212.8427,N,00006.0414,E,1,09,0.9,18.7,M,47.0,M,,0000*61$GPGSA,A,3,03,22,16,19,24,06,08,28,18,,,,1.6,0.9,1.3*39$GPRMC,041906.000,A,5212.8427,N,00006.0414,E,0.00,,090411,,,A*7D$PTTKT,STAT,0,0,0,0,0*6D
$GPGGA,041907.000,5212.8427,N,00006.0414,E,1,09,0.9,18.7,M,47.0,M,,0000*60$GPGSA,A,3,03,22,16,19,24,06,08,28,18,,,,1.6,0.9,1.3*39$GPGSV,3,1,12,19,84,259,40,03,56,144,38,22,53,082,39,06,46,133,40*7B$GPGSV,3,2,12,11,34,264,,18,29,052,31,24,25,251,23,08,11,297,29*72$GPGSV,3,3,12,28,11,326,17,14,10,115,23,16,08,177,37,32,05,198,23*7E$GPRMC,041907.000,A,5212.8427,N,00006.0414,E,0.00,,090411,,,A*7C$PTTKT,STAT,0,0,0,0,0*6D
$GPGGA,041908.000,5212.8427,N,00006.0414,E,1,09,0.9,18.7,M,47.0,M,,0000*6F$GPGSA,A,3,03,22,16,19,24,06,08,28,18,,,,1.6,0.9,1.3*39$GPRMC,041908.000,A,5212.8427,N,00006.0414,E,0.00,,090411,,,A*73$PTTKT,STAT,0,0,0,0,0*6D
$GPGGA,041909.000,5212.8427,N,00006.0414,E,1,09,0.9,18.7,M,47.0,M,,0000*6E$GPGSA,A,3,03,22,16,19,24,06,08,28,18,,,,1.6,0.9,1.3*39$GPRMC,041909.000,A,5212.8427,N,00006.0414,E,0.00,,090411,,,A*72$GPGGA,041910.000,5212.8427,N,00006.0414,E,1,09,0.9,18.7,M,47.0,M,,0000*66$GPGSA,A,3,03,22,16,19,24,06,08,28,18,,,,1.6,0.9,1.3*39$GPRMC,041910.000,A,5212.8427,N,00006.0414,E,0.00,,090411,,,A*7A$PTTKT,STAT,0,0,0,0,0*6D
$GPGGA,041911.000,5212.8427,N,00006.0414,E,1,09,0.9,18.7,M,47.0,M,,0000*67$GPGSA,A,3,03,22,16,19,24,06,08,28,18,,,,1.6,0.9,1.3*39$GPRMC,041911.000,A,5212.8427,N,00006.0414,E,0.00,,090411,,,A*7B$PTTKT,STAT,0,0,0,0,0*6D
$GPGGA,041912.000,5212.8427,N,00006.0414,E,1,09,0.9,18.7,M,47.0,M,,0000*64$GPGSA,A,3,03,22,16,19,24,06,08,28,18,,,,1.6,0.9,1.3*39$GPGSV,3,1,12,19,84,259,39,03,56,144,38,22,53,082,39,06,46,133,39*7B$GPGSV,3,2,12,11,34,264,,18,29,052,31,24,25,251,23,08,11,297,29*72$GPGSV,3,3,12,28,11,326,18,14,10,115,23,16,08,177,37,32,05,198,23*71$GPRMC,041912.000,A,5212.8427,N,00006.0414,E,0.00,,090411,,,A*78$PTTKT,STAT,0,0,0,0,0*6D
$GPGGA,041913.000,5212.8427,N,00006.0414,E,1,09,0.9,18.7,M,47.0,M,,0000*65$GPGSA,A,3,03,22,16,19,24,06,08,28,18,,,,1.6,0.9,1.3*39$GPRMC,041913.000,A,5212.8427,N,00006.0414,E,0.00,,090411,,,A*79$PTTKT,STAT,0,0,0,0,0*6D
$GPGGA,041914.000,5212.8427,N,00006.0414,E,1,10,0.9,18.7,M,47.0,M,,0000*6A$GPGSA,A,3,03,22,16,19,24,11,06,08,28,18,,,1.6,0.9,1.3*39$GPRMC,041914.000,A,5212.8427,N,00006.0414,E,0.00,,090411,,,A*7E$PTTKT,STAT,0,0,0,0,0*6D
$GPGGA,041915.000,5212.8427,N,00006.0414,E,1,10,0.9,18.7,M,47.0,M,,0000*6B$GPGSA,A,3,03,22,16,19,24,11,06,08,28,18,,,1.6,0.9,1.3*39$GPRMC,041915.000,A,5212.8427,N,00006.0414,E,0.00,,090411,,,A*7F$PTTKT,STAT,0,0,0,0,0*6D
$GPGGA,041916.000,5212.8427,N,00006.0414,E,1,10,0.9,18.7,M,47.0,M,,0000*68$GPGSA,A,3,03,22,16,19,24,11,06,08,28,18,,,1.6,0.9,1.3*39$GPRMC,041916.000,A,5212.8427,N,00006.0414,E,0.00,,090411,,,A*7C$PTTKT,STAT,0,0,0,0,0*6D
$GPGGA,041917.000,5212.8427,N,00006.0414,E,1,10,0.9,18.7,M,47.0,M,,0000*69$GPGSA,A,3,03,22,16,19,24,11,06,08,28,18,,,1.6,0.9,1.3*39$GPGSV,3,1,12,19,84,259,39,03,56,144,38,22,53,082,39,06,46,133,39*7B$GPGSV,3,2,12,11,34,264,14,18,29,052,31,24,25,251,24,08,11,297,29*70$GPGSV,3,3,12,28,11,326,17,14,10,115,22,16,08,177,37,32,05,198,22*7E$GPRMC,041917.000,A,5212.8427,N,00006.0414,E,0.00,,090411,,,A*7D$GPGGA,041918.000,5212.8427,N,00006.0414,E,1,10,0.9,18.7,M,47.0,M,,0000*66$GPGSA,A,3,03,22,16,19,24,11,06,08,28,18,,,1.6,0.9,1.3*39$GPRMC,041918.000,A,5212.8427,N,00006.0414,E,0.00,,090411,,,A*72$PTTKT,STAT,0,0,0,0,0*6D
$GPGGA,041919.000,5212.8427,N,00006.0414,E,1,09,0.9,18.7,M,47.0,M,,0000*6F$GPGSA,A,3,03,22,16,19,24,06,08,28,18,,,,1.6,0.9,1.3*39$GPRMC,041919.000,A,5212.8427,N,00006.0414,E,0.00,,090411,,,A*73$PTTKT,STAT,0,0,0,0,0*6D
$GPGGA,041920.000,5212.8427,N,00006.0414,E,1,09,0.9,18.7,M,47.0,M,,0000*65$GPGSA,A,3,03,22,16,19,24,06,08,28,18,,,,1.6,0.9,1.3*39$GPRMC,041920.000,A,5212.8427,N,00006.0414,E,0.00,,090411,,,A*79$PTTKT,STAT,0,0,0,0,0*6D
$GPGGA,041921.000,5212.8427,N,00006.0414,E,1,09,0.9,18.7,M,47.0,M,,0000*64$GPGSA,A,3,03,22,16,19,24,06,08,28,18,,,,1.6,0.9,1.3*39$GPRMC,041921.000,A,5212.8427,N,00006.0414,E,0.00,,090411,,,A*78$PTTKT,STAT,0,0,0,0,0*6D
$GPGGA,041922.000,5212.8427,N,00006.0414,E,1,09,0.9,18.7,M,47.0,M,,0000*67$GPGSA,A,3,03,22,16,19,24,06,08,28,18,,,,1.6,0.9,1.3*39$GPGSV,3,1,12,19,84,259,38,03,56,144,37,22,53,082,38,06,46,133,39*74$GPGSV,3,2,12,11,34,264,,18,29,052,31,24,25,251,23,08,11,297,29*72$GPGSV,3,3,12,28,11,326,20,14,10,115,22,16,08,177,36,32,05,198,22*7B$GPRMC,041922.000,A,5212.8427,N,00006.0414,E,0.00,,090411,,,A*7B$PTTKT,STAT,0,0,0,0,0*6D
$GPGGA,041923.000,5212.8427,N,00006.0414,E,1,10,0.9,18.7,M,47.0,M,,0000*6E$GPGSA,A,3,03,22,16,19,24,11,06,08,28,18,,,1.6,0.9,1.3*39$GPRMC,041923.000,A,5212.8427,N,00006.0414,E,0.00,,090411,,,A*7A$PTTKT,STAT,0,0,0,0,0*6D
$GPGGA,041924.000,5212.8427,N,00006.0414,E,1,10,0.9,18.7,M,47.0,M,,0000*69$GPGSA,A,3,03,22,16,19,24,11,06,08,28,18,,,1.6,0.9,1.3*39$GPRMC,041924.000,A,5212.8427,N,00006.0414,E,0.00,,090411,,,A*7D$PTTKT,STAT,0,0,0,0,0*6D
$GPGGA,041925.000,5212.8427,N,00006.0414,E,1,10,0.9,18.7,M,47.0,M,,0000*68$GPGSA,A,3,03,22,16,19,24,11,06,08,28,18,,,1.6,0.9,1.3*39$GPRMC,041925.000,A,5212.8427,N,00006.0414,E,0.00,,090411,,,A*7C$PTTKT,STAT,0,0,0,0,0*6D
$GPGGA,041926.000,5212.8427,N,00006.0414,E,1,10,0.9,18.7,M,47.0,M,,0000*6B$GPGSA,A,3,03,22,16,19,24,11,06,08,28,18,,,1.6,0.9,1.3*39$GPRMC,041926.000,A,5212.8427,N,00006.0414,E,0.00,,090411,,,A*7F$PTTKT,STAT,0,0,0,0,0*6D
$GPGGA,041927.000,5212.8427,N,00006.0414,E,1,10,0.9,18.7,M,47.0,M,,0000*6A$GPGSA,A,3,03,22,16,19,24,11,06,08,28,18,,,1.6,0.9,1.3*39$GPGSV,3,1,12,19,84,259,38,03,56,144,36,22,53,082,38,06,46,133,39*75$GPGSV,3,2,12,11,34,264,20,18,29,052,31,24,25,251,19,08,11,297,29*79$GPGSV,3,3,12,28,11,326,19,14,10,115,22,16,08,177,36,32,05,198,22*71$GPRMC,041927.000,A,5212.8427,N,00006.0414,E,0.00,,090411,,,A*7E$GPGGA,041928.000,5212.8427,N,00006.0414,E,1,10,0.9,18.7,M,47.0,M,,0000*65$GPGSA,A,3,03,22,16,19,24,11,06,08,28,18,,,1.6,0.9,1.3*39$GPRMC,041928.000,A,5212.8427,N,00006.0414,E,0.00,,090411,,,A*71$PTTKT,STAT,0,0,0,0,0*6D
$GPGGA,041929.000,5212.8427,N,00006.0414,E,1,10,0.9,18.7,M,47.0,M,,0000*64$GPGSA,A,3,03,22,16,19,24,11,06,08,28,18,,,1.6,0.9,1.3*39$GPRMC,041929.000,A,5212.8427,N,00006.0414,E,0.00,,090411,,,A*70$PTTKT,STAT,0,0,0,0,0*6D
$GPGGA,041930.000,5212.8427,N,00006.0414,E,1,10,0.9,18.7,M,47.0,M,,0000*6C$GPGSA,A,3,03,22,16,19,24,11,06,08,28,18,,,1.6,0.9,1.3*39$GPRMC,041930.000,A,5212.8427,N,00006.0414,E,0.00,,090411,,,A*78$PTTKT,STAT,0,0,0,0,0*6D
$GPGGA,041931.000,5212.8427,N,00006.0414,E,1,10,0.9,18.7,M,47.0,M,,0000*6D$GPGSA,A,3,03,22,16,19,24,11,06,08,28,18,,,1.6,0.9,1.3*39$GPRMC,041931.000,A,5212.8427,N,00006.0414,E,0.00,,090411,,,A*79$PTTKT,STAT,0,0,0,0,0*6D
$GPGGA,041932.000,5212.8427,N,00006.0414,E,1,10,0.9,18.7,M,47.0,M,,0000*6E$GPGSA,A,3,03,22,16,19,24,11,06,08,28,18,,,1.6,0.9,1.3*39$GPGSV,3,1,12,19,84,259,38,03,56,144,36,22,53,082,38,06,46,133,40*7B$GPGSV,3,2,12,11,34,264,22,18,29,052,31,24,25,251,19,08,11,297,30*73$GPGSV,3,3,12,28,11,326,19,14,10,115,21,16,08,177,36,32,05,198,22*72$GPRMC,041932.000,A,5212.8427,N,00006.0414,E,0.00,,090411,,,A*7A$PTTKT,STAT,0,0,0,0,0*6D
$GPGGA,041933.000,5212.8427,N,00006.0414,E,1,10,0.9,18.7,M,47.0,M,,0000*6F$GPGSA,A,3,03,22,16,19,24,11,06,08,28,18,,,1.6,0.9,1.3*39$GPRMC,041933.000,A,5212.8427,N,00006.0414,E,0.00,,090411,,,A*7B$PTTKT,STAT,0,0,0,0,0*6D
$GPGGA,041934.000,5212.8427,N,00006.0414,E,1,10,0.9,18.7,M,47.0,M,,0000*68$GPGSA,A,3,03,22,16,19,24,11,06,08,28,18,,,1.6,0.9,1.3*39$GPRMC,041934.000,A,5212.8427,N,00006.0414,E,0.00,,090411,,,A*7C$GPGGA,041935.000,5212.8427,N,00006.0414,E,1,10,0.9,18.7,M,47.0,M,,0000*69$GPGSA,A,3,03,22,16,19,24,11,06,08,28,18,,,1.6,0.9,1.3*39$GPRMC,041935.000,A,5212.8427,N,00006.0414,E,0.00,,090411,,,A*7D$PTTKT,STAT,0,0,0,0,0*6D
$GPGGA,041936.000,5212.8427,N,00006.0414,E,1,10,0.9,18.7,M,47.0,M,,0000*6A$GPGSA,A,3,03,22,16,19,24,11,06,08,28,18,,,1.6,0.9,1.3*39$GPRMC,041936.000,A,5212.8427,N,00006.0414,E,0.00,,090411,,,A*7E$PTTKT,STAT,0,0,0,0,0*6D
$GPGGA,041937.000,5212.8427,N,00006.0414,E,1,10,0.9,18.7,M,47.0,M,,0000*6B$GPGSA,A,3,03,22,16,19,24,11,06,08,28,18,,,1.6,0.9,1.3*39$GPGSV,3,1,12,19,84,259,38,03,56,144,35,22,53,082,38,06,46,133,40*78$GPGSV,3,2,12,11,34,264,22,18,29,052,31,24,25,251,19,08,11,297,30*73$GPGSV,3,3,12,28,11,326,19,14,10,115,21,16,08,177,35,32,05,198,22*71$GPRMC,041937.000,A,5212.8427,N,00006.0414,E,0.00,,090411,,,A*7F$PTTKT,STAT,0,0,0,0,0*6D
$GPGGA,041938.000,5212.8427,N,00006.0414,E,1,10,0.9,18.7,M,47.0,M,,0000*64$GPGSA,A,3,03,22,16,19,24,11,06,08,28,18,,,1.6,0.9,1.3*39$GPRMC,041938.000,A,5212.8427,N,00006.0414,E,0.00,,090411,,,A*70$PTTKT,STAT,0,0,0,0,0*6D
$GPGGA,041939.000,5212.8427,N,00006.0414,E,1,10,0.9,18.7,M,47.0,M,,0000*65$GPGSA,A,3,03,22,16,19,24,11,06,08,28,18,,,1.6,0.9,1.3*39$GPRMC,041939.000,A,5212.8427,N,00006.0414,E,0.00,,090411,,,A*71$PTTKT,STAT,0,0,0,0,0*6D
$GPGGA,041940.000,5212.8427,N,00006.0414,E,1,10,0.9,18.7,M,47.0,M,,0000*6B$GPGSA,A,3,03,22,16,19,24,11,06,08,28,18,,,1.6,0.9,1.3*39$GPRMC,041940.000,A,5212.8427,N,00006.0414,E,0.00,,090411,,,A*7F$PTTKT,STAT,0,0,0,0,0*6D
$GPGGA,041941.000,5212.8427,N,00006.0414,E,1,10,0.9,18.7,M,47.0,M,,0000*6A$GPGSA,A,3,03,22,16,19,24,11,06,08,28,18,,,1.6,0.9,1.3*39$GPRMC,041941.000,A,5212.8427,N,00006.0414,E,0.00,,090411,,,A*7E$PTTKT,STAT,0,0,0,0,0*6D
$GPGGA,041942.000,5212.8427,N,00006.0414,E,1,10,0.9,18.7,M,47.0,M,,0000*69$GPGSA,A,3,03,22,16,19,24,11,06,08,28,18,,,1.6,0.9,1.3*39$GPGSV,3,1,12,19,84,259,38,03,56,144,35,22,53,082,38,06,46,133,40*78$GPGSV,3,2,12,11,34,264,23,18,29,052,30,24,25,251,18,08,11,297,30*72$GPGSV,3,3,12,28,11,326,20,14,10,115,20,16,08,177,35,32,05,198,22*7A$GPRMC,041942.000,A,5212.8427,N,00006.0414,E,0.00,,090411,,,A*7D$GPGGA,041943.000,5212.8427,N,00006.0414,E,1,10,0.9,18.7,M,47.0,M,,0000*68$GPGSA,A,3,03,22,16,19,24,11,06,08,28,18,,,1.6,0.9,1.3*39$GPRMC,041943.000,A,5212.8427,N,00006.0414,E,0.00,,090411,,,A*7C$PTTKT,STAT,0,0,0,0,0*6D
$GPGGA,041944.000,5212.8427,N,00006.0414,E,1,10,0.9,18.7,M,47.0,M,,0000*6F$GPGSA,A,3,03,22,16,19,24,11,06,08,28,18,,,1.6,0.9,1.3*39$GPRMC,041944.000,A,5212.8427,N,00006.0414,E,0.00,,090411,,,A*7B$PTTKT,STAT,0,0,0,0,0*6D
$GPGGA,041945.000,5212.8427,N,00006.0414,E,1,10,0.9,18.7,M,47.0,M,,0000*6E$GPGSA,A,3,03,22,16,19,24,11,06,08,28,18,,,1.6,0.9,1.3*39$GPRMC,041945.000,A,5212.8427,N,00006.0414,E,0.00,,090411,,,A*7A$PTTKT,STAT,0,0,0,0,0*6D
$GPGGA,041946.000,5212.8427,N,00006.0414,E,1,10,0.9,18.7,M,47.0,M,,0000*6D$GPGSA,A,3,03,22,16,19,24,11,06,08,28,18,,,1.5,0.9,1.3*3A$GPRMC,041946.000,A,5212.8427,N,00006.0414,E,0.00,,090411,,,A*79$PTTKT,STAT,0,0,0,0,0*6D
$GPGGA,041947.000,5212.8427,N,00006.0414,E,1,10,0.9,18.7,M,47.0,M,,0000*6C$GPGSA,A,3,03,22,16,19,24,11,06,08,28,18,,,1.5,0.9,1.3*3A$GPGSV,3,1,12,19,84,259,38,03,56,144,34,22,53,082,38,06,46,133,39*77$GPGSV,3,2,12,11,34,264,23,18,29,052,31,24,25,251,18,08,11,297,30*73$GPGSV,3,3,12,28,11,326,20,14,10,115,20,16,08,177,35,32,05,198,21*79$GPRMC,041947.000,A,5212.8427,N,00006.0414,E,0.00,,090411,,,A*78$PTTKT,STAT,0,0,0,0,0*6D
$GPGGA,041948.000,5212.8427,N,00006.0414,E,1,10,0.9,18.7,M,47.0,M,,0000*63$GPGSA,A,3,03,22,16,19,24,11,06,08,28,18,,,1.5,0.9,1.3*3A$GPRMC,041948.000,A,5212.8427,N,00006.0414,E,0.00,,090411,,,A*77$PTTKT,STAT,0,0,0,0,0*6D
$GPGGA,041949.000,5212.8427,N,00006.0414,E,1,09,0.9,18.7,M,47.0,M,,0000*6A$GPGSA,A,3,03,22,16,19,11,06,08,28,18,,,,1.6,0.9,1.3*3F$GPRMC,041949.000,A,5212.8427,N,00006.0414,E,0.00,,090411,,,A*76$PTTKT,STAT,0,0,0,0,0*6D
$GPGGA,041950.000,5212.8427,N,00006.0414,E,1,09,0.9,18.7,M,47.0,M,,0000*62$GPGSA,A,3,03,22,16,19,11,06,08,28,18,,,,1.6,0.9,1.3*3F$GPRMC,041950.000,A,5212.8427,N,00006.0414,E,0.00,,090411,,,A*7E$GPGGA,041951.000,5212.8427,N,00006.0414,E,1,09,0.9,18.7,M,47.0,M,,0000*63$GPGSA,A,3,03,22,16,19,11,06,08,28,18,,,,1.6,0.9,1.3*3F$GPRMC,041951.000,A,5212.8427,N,00006.0414,E,0.00,,090411,,,A*7F$PTTKT,STAT,0,0,0,0,0*6D
$GPGGA,041952.000,5212.8427,N,00006.0414,E,1,09,0.9,18.7,M,47.0,M,,0000*60$GPGSA,A,3,03,22,16,19,11,06,08,28,18,,,,1.6,0.9,1.3*3F$GPGSV,3,1,12,19,84,259,39,03,56,144,34,22,53,082,38,06,46,133,39*76$GPGSV,3,2,12,11,34,264,23,18,29,052,31,24,25,251,,08,11,297,30*7A$GPGSV,3,3,12,28,11,326,28,14,10,115,20,16,08,177,35,32,05,198,21*71$GPRMC,041952.000,A,5212.8427,N,00006.0414,E,0.00,,090411,,,A*7C$PTTKT,STAT,0,0,0,0,0*6D
$GPGGA,041953.000,5212.8427,N,00006.0414,E,1,09,0.9,18.7,M,47.0,M,,0000*61$GPGSA,A,3,03,22,16,19,11,06,08,28,18,,,,1.6,0.9,1.3*3F$GPRMC,041953.000,A,5212.8427,N,00006.0414,E,0.00,,090411,,,A*7D$PTTKT,STAT,0,0,0,0,0*6D
$GPGGA,041954.000,5212.8427,N,00006.0414,E,1,09,0.9,18.7,M,47.0,M,,0000*66$GPGSA,A,3,03,22,16,19,11,06,08,28,18,,,,1.6,0.9,1.3*3F$GPRMC,041954.000,A,5212.8427,N,00006.0414,E,0.00,,090411,,,A*7A$PTTKT,STAT,0,0,0,0,0*6D
$GPGGA,041955.000,5212.8427,N,00006.0414,E,1,09,0.9,18.7,M,47.0,M,,0000*67$GPGSA,A,3,03,22,16,19,11,06,08,28,18,,,,1.6,0.9,1.3*3F$GPRMC,041955.000,A,5212.8427,N,00006.0414,E,0.00,,090411,,,A*7B$PTTKT,STAT,0,0,0,0,0*6D
$GPGGA,041956.000,5212.8427,N,00006.0414,E,1,09,0.9,18.7,M,47.0,M,,0000*64$GPGSA,A,3,03,22,16,19,11,06,08,28,18,,,,1.6,0.9,1.3*3F$GPRMC,041956.000,A,5212.8427,N,00006.0414,E,0.00,,090411,,,A*78$PTTKT,STAT,0,0,0,0,0*6D
$GPGGA,041957.000,5212.8427,N,00006.0414,E,1,09,0.9,18.7,M,47.0,M,,0000*65$GPGSA,A,3,03,22,16,19,11,06,08,28,18,,,,1.6,0.9,1.3*3F$GPGSV,3,1,12,19,84,259,39,03,56,144,33,22,53,082,38,06,46,133,39*71$GPGSV,3,2,12,11,34,264,23,18,29,052,31,24,25,251,,08,11,297,30*7A$GPGSV,3,3,12,28,11,326,29,14,10,115,20,16,08,177,35,32,05,198,20*71$GPRMC,041957.000,A,5212.8427,N,00006.0414,E,0.00,,090411,,,A*79$PTTKT,STAT,0,0,0,0,0*6D
$GPGGA,041958.000,5212.8427,N,00006.0414,E,1,09,0.9,18.7,M,47.0,M,,0000*6A$GPGSA,A,3,03,22,16,19,11,06,08,28,18,,,,1.6,0.9,1.3*3F$GPRMC,041958.000,A,5212.8427,N,00006.0414,E,0.00,,090411,,,A*76$GPGGA,041959.000,5212.8427,N,00006.0414,E,1,09,0.9,18.7,M,47.0,M,,0000*6B$GPGSA,A,3,03,22,16,19,11,06,08,28,18,,,,1.6,0.9,1.3*3F$GPRMC,041959.000,A,5212.8427,N,00006.0414,E,0.00,,090411,,,A*77$PTTKT,STAT,0,0,0,0,0*6D
$GPGGA,042000.000,5212.8427,N,00006.0414,E,1,09,0.9,18.7,M,47.0,M,,0000*6D$GPGSA,A,3,03,22,16,19,11,06,08,28,18,,,,1.6,0.9,1.3*3F$GPRMC,042000.000,A,5212.8427,N,00006.0414,E,0.00,,090411,,,A*71$PTTKT,STAT,0,0,0,0,0*6D
$GPGGA,042001.000,5212.8427,N,00006.0414,E,1,09,0.9,18.7,M,47.0,M,,0000*6C$GPGSA,A,3,03,22,16,19,11,06,08,28,18,,,,1.6,0.9,1.3*3F$GPRMC,042001.000,A,5212.8427,N,00006.0414,E,0.00,,090411,,,A*70$PTTKT,STAT,0,0,0,0,0*6D
$GPGGA,042002.000,5212.8427,N,00006.0414,E,1,09,0.9,18.7,M,47.0,M,,0000*6F$GPGSA,A,3,03,22,16,19,11,06,08,28,18,,,,1.6,0.9,1.3*3F$GPGSV,3,1,12,19,84,259,39,03,56,144,33,22,53,082,38,06,46,133,39*71$GPGSV,3,2,12,11,34,264,23,18,29,052,32,24,25,251,,08,11,297,30*79$GPGSV,3,3,12,28,11,326,28,14,10,115,19,16,08,177,35,32,05,198,21*7B$GPRMC,042002.000,A,5212.8427,N,00006.0414,E,0.00,,090411,,,A*73$PTTKT,STAT,0,0,0,0,0*6D
$GPGGA,042003.000,5212.8427,N,00006.0414,E,1,09,0.9,18.7,M,47.0,M,,0000*6E$GPGSA,A,3,03,22,16,19,11,06,08,28,18,,,,1.6,0.9,1.3*3F$GPRMC,042003.000,A,5212.8427,N,00006.0414,E,0.00,,090411,,,A*72$PTTKT,STAT,0,0,0,0,0*6D
$GPGGA,042004.000,5212.8427,N,00006.0414,E,1,09,0.9,18.7,M,47.0,M,,0000*69$GPGSA,A,3,03,22,16,19,11,06,08,28,18,,,,1.6,0.9,1.3*3F$GPRMC,042004.000,A,5212.8427,N,00006.0414,E,0.00,,090411,,,A*75$PTTKT,STAT,0,0,0,0,0*6D
$GPGGA,042005.000,5212.8427,N,00006.0414,E,1,09,0.9,18.7,M,47.0,M,,0000*68$GPGSA,A,3,03,22,16,19,11,06,08,28,18,,,,1.6,0.9,1.3*3F$GPRMC,042005.000,A,5212.8427,N,00006.0414,E,0.00,,090411,,,A*74$GPGGA,042006.000,5212.8427,N,00006.0414,E,1,09,0.9,18.7,M,47.0,M,,0000*6B$GPGSA,A,3,03,22,16,19,11,06,08,28,18,,,,1.6,0.9,1.3*3F$GPRMC,042006.000,A,5212.8427,N,00006.0414,E,0.00,,090411,,,A*77$PTTKT,STAT,0,0,0,0,0*6D
$GPGGA,042007.000,5212.8427,N,00006.0414,E,1,09,0.9,18.7,M,47.0,M,,0000*6A$GPGSA,A,3,03,22,16,19,11,06,08,28,18,,,,1.6,0.9,1.3*3F$GPGSV,3,1,12,19,84,259,40,03,56,144,34,22,53,082,38,06,46,133,39*78$GPGSV,3,2,12,11,34,264,24,18,29,052,32,24,25,251,,08,11,297,32*7C$GPGSV,3,3,12,28,11,326,25,14,10,115,,16,08,177,35,32,05,198,22*7D$GPRMC,042007.000,A,5212.8427,N,00006.0414,E,0.00,,090411,,,A*76$PTTKT,STAT,0,0,0,0,0*6D
$GPGGA,042008.000,5212.8427,N,00006.0414,E,1,09,0.9,18.7,M,47.0,M,,0000*65$GPGSA,A,3,03,22,16,19,11,06,08,28,18,,,,1.6,0.9,1.3*3F$GPRMC,042008.000,A,5212.8427,N,00006.0414,E,0.00,,090411,,,A*79$PTTKT,STAT,0,0,0,0,0*6D
$GPGGA,042009.000,5212.8427,N,00006.0414,E,1,09,0.9,18.7,M,47.0,M,,0000*64$GPGSA,A,3,03,22,16,19,11,06,08,28,18,,,,1.6,0.9,1.3*3F$GPRMC,042009.000,A,5212.8427,N,00006.0414,E,0.00,,090411,,,A*78$PTTKT,STAT,0,0,0,0,0*6D
$GPGGA,042010.000,5212.8427,N,00006.0414,E,1,09,0.9,18.7,M,47.0,M,,0000*6C$GPGSA,A,3,03,22,16,19,11,06,08,28,18,,,,1.6,0.9,1.3*3F$GPRMC,042010.000,A,5212.8427,N,00006.0414,E,0.00,,090411,,,A*70$PTTKT,STAT,0,0,0,0,0*6D
$GPGGA,042011.000,5212.8427,N,00006.0414,E,1,09,0.9,18.7,M,47.0,M,,0000*6D$GPGSA,A,3,03,22,16,19,11,06,08,28,18,,,,1.6,0.9,1.3*3F$GPRMC,042011.000,A,5212.8427,N,00006.0414,E,0.00,,090411,,,A*71$PTTKT,STAT,0,0,0,0,0*6D
$GPGGA,042012.000,5212.8427,N,00006.0414,E,1,09,0.9,18.7,M,47.0,M,,0000*6E$GPGSA,A,3,03,22,16,19,11,06,08,28,18,,,,1.6,0.9,1.3*3F$GPGSV,3,1,12,19,84,259,41,03,56,144,35,22,53,082,40,06,46,133,41*78$GPGSV,3,2,12,11,34,264,25,18,29,052,34,24,25,251,,08,11,297,34*7D$GPGSV,3,3,12,28,11,326,32,14,10,115,22,16,08,177,36,32,05,198,24*7E$GPRMC,042012.000,A,5212.8427,N,00006.0414,E,0.00,,090411,,,A*72$PTTKT,STAT,0,0,0,0,0*6D
$GPGGA,042013.000,5212.8427,N,00006.0414,E,1,09,0.9,18.7,M,47.0,M,,0000*6F$GPGSA,A,3,03,22,16,19,11,06,08,28,18,,,,1.6,0.9,1.3*3F$GPRMC,042013.000,A,5212.8427,N,00006.0414,E,0.00,,090411,,,A*73$PTTKT,STAT,0,0,0,0,0*6D
