$GPGSV,3,3,11,22,08,056,31,09,03,359,39,03,00,155,*4D$GPRMC,062827.000,A,5150.4995,N,00033.4749,E,0.00,,090411,,,A*7A$GPGGA,062828.000,5150.4995,N,00033.4749,E,1,09,1.0,63.1,M,47.0,M,,0000*6B$GPGSA,A,3,14,22,19,17,32,11,28,24,20,,,,1.7,1.0,1.3*33$GPRMC,062828.000,A,5150.4995,N,00033.4749,E,0.00,,090411,,,A*75$PTTKT,STAT,0,0,0,0,0*6D
$GPGGA,062829.000,5150.4995,N,00033.4749,E,1,09,1.0,63.1,M,47.0,M,,0000*6A$GPGSA,A,3,14,22,19,17,32,11,28,24,20,,,,1.7,1.0,1.3*33$GPRMC,062829.000,A,5150.4995,N,00033.4749,E,0.00,,090411,,,A*74$PTTKT,STAT,0,0,0,0,0*6D
$GPGGA,062830.000,5150.4995,N,00033.4749,E,1,09,1.0,63.1,M,47.0,M,,0000*62$GPGSA,A,3,14,22,19,17,32,11,28,24,20,,,,1.7,1.0,1.3*33$GPRMC,062830.000,A,5150.4995,N,00033.4749,E,0.00,,090411,,,A*7C$PTTKT,STAT,0,0,0,0,0*6D
$GPGGA,062831.000,5150.4995,N,00033.4749,E,1,09,1.0,63.1,M,47.0,M,,0000*63$GPGSA,A,3,14,22,19,17,32,11,28,24,20,,,,1.7,1.0,1.3*33$GPRMC,062831.000,A,5150.4995,N,00033.4749,E,0.00,,090411,,,A*7D$PTTKT,STAT,0,0,0,0,0*6D
$GPGGA,062832.000,5150.4995,N,00033.4749,E,1,09,1.0,63.1,M,47.0,M,,0000*60$GPGSA,A,3,14,22,19,17,32,11,28,24,20,,,,1.7,1.0,1.3*33$GPGSV,3,1,11,11,83,169,40,24,80,295,29,32,67,203,37,20,39,227,31*79$GPGSV,3,2,11,14,33,057,37,19,30,157,38,28,26,276,40,17,19,313,41*7B$GPGSV,3,3,11,22,08,056,32,09,03,359,38,03,00,155,*4F$GPRMC,062832.000,A,5150.4995,N,00033.4749,E,0.00,,090411,,,A*7E$PTTKT,STAT,0,0,0,0,0*6D
$GPGGA,062833.000,5150.4995,N,00033.4749,E,1,09,1.0,63.1,M,47.0,M,,0000*61$GPGSA,A,3,14,22,19,17,32,11,28,24,20,,,,1.7,1.0,1.3*33$GPRMC,062833.000,A,5150.4995,N,00033.4749,E,0.00,,090411,,,A*7F$PTTKT,STAT,0,0,0,0,0*6D
$GPGGA,062834.000,5150.4995,N,00033.4749,E,1,09,1.0,63.1,M,47.0,M,,0000*66$GPGSA,A,3,14,22,19,17,32,11,28,24,20,,,,1.7,1.0,1.3*33$GPRMC,062834.000,A,5150.4995,N,00033.4749,E,0.00,,090411,,,A*78$PTTKT,STAT,0,0,0,0,0*6D
$GPGGA,062835.000,5150.4995,N,00033.4749,E,1,09,1.0,63.1,M,47.0,M,,0000*67$GPGSA,A,3,14,22,19,17,32,11,28,24,20,,,,1.7,1.0,1.3*33$GPRMC,062835.000,A,5150.4995,N,00033.4749,E,0.00,,090411,,,A*79$PTTKT,STAT,0,0,0,0,0*6D
$GPGGA,062836.000,5150.4995,N,00033.4749,E,1,09,1.0,63.1,M,47.0,M,,0000*64$GPGSA,A,3,14,22,19,17,32,11,28,24,20,,,,1.7,1.0,1.3*33$GPRMC,062836.000,A,5150.4995,N,00033.4749,E,0.00,,090411,,,A*7A$GPGGA,062837.000,5150.4995,N,00033.4749,E,1,09,1.0,63.1,M,47.0,M,,0000*65$GPGSA,A,3,14,22,19,17,32,11,28,24,20,,,,1.7,1.0,1.3*33$GPGSV,3,1,11,11,83,169,40,24,80,295,29,32,67,203,36,20,39,227,31*78$GPGSV,3,2,11,14,33,057,36,19,30,157,38,28,26,276,40,17,19,313,41*7A$GPGSV,3,3,11,22,08,056,32,09,03,359,38,03,00,155,*4F$GPRMC,062837.000,A,5150.4995,N,00033.4749,E,0.00,,090411,,,A*7B$PTTKT,STAT,0,0,0,0,0*6D
$GPGGA,062838.000,5150.4995,N,00033.4749,E,1,09,1.0,63.1,M,47.0,M,,0000*6A$GPGSA,A,3,14,22,19,17,32,11,28,24,20,,,,1.7,1.0,1.3*33$GPRMC,062838.000,A,5150.4995,N,00033.4749,E,0.00,,090411,,,A*74$PTTKT,STAT,0,0,0,0,0*6D
$GPGGA,062839.000,5150.4995,N,00033.4749,E,1,09,1.0,63.1,M,47.0,M,,0000*6B$GPGSA,A,3,14,22,19,17,32,11,28,24,20,,,,1.7,1.0,1.3*33$GPRMC,062839.000,A,5150.4995,N,00033.4749,E,0.00,,090411,,,A*75$PTTKT,STAT,0,0,0,0,0*6D
$GPGGA,062840.000,5150.4995,N,00033.4749,E,1,09,1.0,63.1,M,47.0,M,,0000*65$GPGSA,A,3,14,22,19,17,32,11,28,24,20,,,,1.7,1.0,1.3*33$GPRMC,062840.000,A,5150.4995,N,00033.4749,E,0.00,,090411,,,A*7B$PTTKT,STAT,0,0,0,0,0*6D
$GPGGA,062841.000,5150.4995,N,00033.4749,E,1,09,1.0,63.1,M,47.0,M,,0000*64$GPGSA,A,3,14,22,19,17,32,11,28,24,20,,,,1.7,1.0,1.3*33$GPRMC,062841.000,A,5150.4995,N,00033.4749,E,0.00,,090411,,,A*7A$PTTKT,STAT,0,0,0,0,0*6D
$GPGGA,062842.000,5150.4995,N,00033.4749,E,1,09,1.0,63.1,M,47.0,M,,0000*67$GPGSA,A,3,14,22,19,17,32,11,28,24,20,,,,1.7,1.0,1.3*33$GPGSV,3,1,11,11,83,169,40,24,80,295,28,32,67,203,36,20,39,227,31*79$GPGSV,3,2,11,14,33,057,37,19,30,157,38,28,26,276,40,17,19,313,42*78$GPGSV,3,3,11,22,08,056,32,09,03,359,38,03,00,155,*4F$GPRMC,062842.000,A,5150.4995,N,00033.4749,E,0.00,,090411,,,A*79$PTTKT,STAT,0,0,0,0,0*6D
$GPGGA,062843.000,5150.4995,N,00033.4749,E,1,09,1.0,63.1,M,47.0,M,,0000*66$GPGSA,A,3,14,22,19,17,32,11,28,24,20,,,,1.7,1.0,1.3*33$GPRMC,062843.000,A,5150.4995,N,00033.4749,E,0.00,,090411,,,A*78$PTTKT,STAT,0,0,0,0,0*6D
$GPGGA,062844.000,5150.4995,N,00033.4749,E,1,09,1.0,63.1,M,47.0,M,,0000*61$GPGSA,A,3,14,22,19,17,32,11,28,24,20,,,,1.7,1.0,1.3*33$GPRMC,062844.000,A,5150.4995,N,00033.4749,E,0.00,,090411,,,A*7F$PTTKT,STAT,0,0,0,0,0*6D
$GPGGA,062845.000,5150.4995,N,00033.4749,E,1,09,1.0,63.1,M,47.0,M,,0000*60$GPGSA,A,3,14,22,19,17,32,11,28,24,20,,,,1.7,1.0,1.3*33$GPRMC,062845.000,A,5150.4995,N,00033.4749,E,0.00,,090411,,,A*7E$GPGGA,062846.000,5150.4995,N,00033.4749,E,1,09,1.0,63.1,M,47.0,M,,0000*63$GPGSA,A,3,14,22,19,17,32,11,28,24,20,,,,1.7,1.0,1.3*33$GPRMC,062846.000,A,5150.4995,N,00033.4749,E,0.00,,090411,,,A*7D$PTTKT,STAT,0,0,0,0,0*6D
$GPGGA,062847.000,5150.4995,N,00033.4749,E,1,09,1.0,63.1,M,47.0,M,,0000*62$GPGSA,A,3,14,22,19,17,32,11,28,24,20,,,,1.7,1.0,1.3*33$GPGSV,3,1,11,11,83,169,40,24,80,295,27,32,67,203,36,20,39,227,31*76$GPGSV,3,2,11,14,33,057,37,19,30,157,37,28,26,276,40,17,19,313,42*77$GPGSV,3,3,11,22,08,056,32,09,03,359,39,03,00,155,*4E$GPRMC,062847.000,A,5150.4995,N,00033.4749,E,0.00,,090411,,,A*7C$PTTKT,STAT,0,0,0,0,0*6D
$GPGGA,062848.000,5150.4995,N,00033.4749,E,1,09,1.0,63.1,M,47.0,M,,0000*6D$GPGSA,A,3,14,22,19,17,32,11,28,24,20,,,,1.7,1.0,1.3*33$GPRMC,062848.000,A,5150.4995,N,00033.4749,E,0.00,,090411,,,A*73$PTTKT,STAT,0,0,0,0,0*6D
$GPGGA,062849.000,5150.4995,N,00033.4749,E,1,09,1.0,63.1,M,47.0,M,,0000*6C$GPGSA,A,3,14,22,19,17,32,11,28,24,20,,,,1.7,1.0,1.3*33$GPRMC,062849.000,A,5150.4995,N,00033.4749,E,0.00,,090411,,,A*72$PTTKT,STAT,0,0,0,0,0*6D
$GPGGA,062850.000,5150.4995,N,00033.4749,E,1,09,1.0,63.1,M,47.0,M,,0000*64$GPGSA,A,3,14,22,19,17,32,11,28,24,20,,,,1.7,1.0,1.3*33$GPRMC,062850.000,A,5150.4995,N,00033.4749,E,0.00,,090411,,,A*7A$PTTKT,STAT,0,0,0,0,0*6D
$GPGGA,062851.000,5150.4995,N,00033.4749,E,1,09,1.0,63.1,M,47.0,M,,0000*65$GPGSA,A,3,14,22,19,17,32,11,28,24,20,,,,1.7,1.0,1.3*33$GPRMC,062851.000,A,5150.4995,N,00033.4749,E,0.00,,090411,,,A*7B$PTTKT,STAT,0,0,0,0,0*6D
$GPGGA,062852.000,5150.4995,N,00033.4749,E,1,09,1.0,63.1,M,47.0,M,,0000*66$GPGSA,A,3,14,22,19,17,32,11,28,24,20,,,,1.7,1.0,1.3*33$GPGSV,3,1,11,11,83,169,41,24,80,295,27,32,67,203,36,20,39,227,31*77$GPGSV,3,2,11,14,33,057,37,19,30,157,38,28,26,276,40,17,19,313,42*78$GPGSV,3,3,11,22,08,056,32,09,03,359,39,03,00,155,*4E$GPRMC,062852.000,A,5150.4995,N,00033.4749,E,0.00,,090411,,,A*78$PTTKT,STAT,0,0,0,0,0*6D
$GPGGA,062853.000,5150.4995,N,00033.4749,E,1,09,1.0,63.1,M,47.0,M,,0000*67$GPGSA,A,3,14,22,19,17,32,11,28,24,20,,,,1.7,1.0,1.3*33$GPRMC,062853.000,A,5150.4995,N,00033.4749,E,0.00,,090411,,,A*79$GPGGA,062854.000,5150.4995,N,00033.4749,E,1,09,1.0,63.1,M,47.0,M,,0000*60$GPGSA,A,3,14,22,19,17,32,11,28,24,20,,,,1.7,1.0,1.3*33$GPRMC,062854.000,A,5150.4995,N,00033.4749,E,0.00,,090411,,,A*7E$PTTKT,STAT,0,0,0,0,0*6D
$GPGGA,062855.000,5150.4995,N,00033.4749,E,1,09,1.0,63.1,M,47.0,M,,0000*61$GPGSA,A,3,14,22,19,17,32,11,28,24,20,,,,1.7,1.0,1.3*33$GPRMC,062855.000,A,5150.4995,N,00033.4749,E,0.00,,090411,,,A*7F$PTTKT,STAT,0,0,0,0,0*6D
$GPGGA,062856.000,5150.4995,N,00033.4749,E,1,09,1.0,63.1,M,47.0,M,,0000*62$GPGSA,A,3,14,22,19,17,32,11,28,24,20,,,,1.7,1.0,1.3*33$GPRMC,062856.000,A,5150.4995,N,00033.4749,E,0.00,,090411,,,A*7C$PTTKT,STAT,0,0,0,0,0*6D
$GPGGA,062857.000,5150.4995,N,00033.4749,E,1,09,1.0,63.1,M,47.0,M,,0000*63$GPGSA,A,3,14,22,19,17,32,11,28,24,20,,,,1.7,1.0,1.3*33$GPGSV,3,1,11,11,83,169,41,24,80,295,27,32,67,203,36,20,39,227,31*77$GPGSV,3,2,11,14,33,057,37,19,30,157,38,28,26,276,40,17,19,313,42*78$GPGSV,3,3,11,22,08,056,32,09,03,359,39,03,00,155,*4E$GPRMC,062857.000,A,5150.4995,N,00033.4749,E,0.00,,090411,,,A*7D$PTTKT,STAT,0,0,0,0,0*6D
$GPGGA,062858.000,5150.4995,N,00033.4749,E,1,09,1.0,63.1,M,47.0,M,,0000*6C$GPGSA,A,3,14,22,19,17,32,11,28,24,20,,,,1.7,1.0,1.3*33$GPRMC,062858.000,A,5150.4995,N,00033.4749,E,0.00,,090411,,,A*72$PTTKT,STAT,0,0,0,0,0*6D
$GPGGA,062859.000,5150.4995,N,00033.4749,E,1,09,1.0,63.1,M,47.0,M,,0000*6D$GPGSA,A,3,14,22,19,17,32,11,28,24,20,,,,1.7,1.0,1.3*33$GPRMC,062859.000,A,5150.4995,N,00033.4749,E,0.00,,090411,,,A*73$PTTKT,STAT,0,0,0,0,0*6D
$GPGGA,062900.000,5150.4995,N,00033.4749,E,1,09,1.0,63.1,M,47.0,M,,0000*60$GPGSA,A,3,14,22,19,17,32,11,28,24,20,,,,1.7,1.0,1.3*33$GPRMC,062900.000,A,5150.4995,N,00033.4749,E,0.00,,090411,,,A*7E$PTTKT,STAT,0,0,0,0,0*6D
$GPGGA,062901.000,5150.4995,N,00033.4749,E,1,09,1.0,63.1,M,47.0,M,,0000*61$GPGSA,A,3,14,22,19,17,32,11,28,24,20,,,,1.7,1.0,1.3*33$GPRMC,062901.000,A,5150.4995,N,00033.4749,E,0.00,,090411,,,A*7F$PTTKT,STAT,0,0,0,0,0*6D
$GPGGA,062902.000,5150.4995,N,00033.4749,E,1,09,1.0,63.1,M,47.0,M,,0000*62$GPGSA,A,3,14,22,19,17,32,11,28,24,20,,,,1.7,1.0,1.3*33$GPGSV,3,1,11,11,83,169,41,24,80,295,26,32,67,203,36,20,39,227,32*75$GPGSV,3,2,11,14,33,057,37,19,30,157,38,28,26,276,40,17,19,313,42*78$GPGSV,3,3,11,22,08,056,32,09,03,359,40,03,00,155,*40$GPRMC,062902.000,A,5150.4995,N,00033.4749,E,0.00,,090411,,,A*7C$GPGGA,062903.000,5150.4995,N,00033.4749,E,1,09,1.0,63.1,M,47.0,M,,0000*63$GPGSA,A,3,14,22,19,17,32,11,28,24,20,,,,1.7,1.0,1.3*33$GPRMC,062903.000,A,5150.4995,N,00033.4749,E,0.00,,090411,,,A*7D$PTTKT,STAT,0,0,0,0,0*6D
$GPGGA,062904.000,5150.4995,N,00033.4749,E,1,09,1.0,63.1,M,47.0,M,,0000*64$GPGSA,A,3,14,22,19,17,32,11,28,24,20,,,,1.7,1.0,1.3*33$GPRMC,062904.000,A,5150.4995,N,00033.4749,E,0.00,,090411,,,A*7A$PTTKT,STAT,0,0,0,0,0*6D
$GPGGA,062905.000,5150.4995,N,00033.4749,E,1,09,1.0,63.1,M,47.0,M,,0000*65$GPGSA,A,3,14,22,19,17,32,11,28,24,20,,,,1.7,1.0,1.3*33$GPRMC,062905.000,A,5150.4995,N,00033.4749,E,0.00,,090411,,,A*7B$PTTKT,STAT,0,0,0,0,0*6D
$GPGGA,062906.000,5150.4995,N,00033.4749,E,1,09,1.0,63.1,M,47.0,M,,0000*66$GPGSA,A,3,14,22,19,17,32,11,28,24,20,,,,1.7,1.0,1.3*33$GPRMC,062906.000,A,5150.4995,N,00033.4749,E,0.00,,090411,,,A*78$PTTKT,STAT,0,0,0,0,0*6D
$GPGGA,062907.000,5150.4995,N,00033.4749,E,1,09,1.0,63.1,M,47.0,M,,0000*67$GPGSA,A,3,14,22,19,17,32,11,28,24,20,,,,1.7,1.0,1.3*33$GPGSV,3,1,11,11,83,169,40,24,80,295,22,32,67,203,37,20,39,227,32*71$GPGSV,3,2,11,14,33,057,37,19,30,157,38,28,26,276,40,17,19,313,42*78$GPGSV,3,3,11,22,08,056,32,09,03,359,40,03,00,155,*40$GPRMC,062907.000,A,5150.4995,N,00033.4749,E,0.00,,090411,,,A*79$GPGGA,062908.000,5150.4995,N,00033.4749,E,1,09,1.0,63.1,M,47.0,M,,0000*68$GPGSA,A,3,14,22,19,17,32,11,28,24,20,,,,1.7,1.0,1.3*33$GPRMC,062908.000,A,5150.4995,N,00033.4749,E,0.00,,090411,,,A*76$PTTKT,STAT,0,0,0,0,0*6D
$GPGGA,062909.000,5150.4995,N,00033.4749,E,1,09,1.0,63.1,M,47.0,M,,0000*69$GPGSA,A,3,14,22,19,17,32,11,28,24,20,,,,1.7,1.0,1.3*33$GPRMC,062909.000,A,5150.4995,N,00033.4749,E,0.00,,090411,,,A*77$PTTKT,STAT,0,0,0,0,0*6D
$GPGGA,062910.000,5150.4995,N,00033.4749,E,1,09,1.0,63.1,M,47.0,M,,0000*61$GPGSA,A,3,14,22,19,17,32,11,28,24,20,,,,1.7,1.0,1.3*33$GPRMC,062910.000,A,5150.4995,N,00033.4749,E,0.00,,090411,,,A*7F$PTTKT,STAT,0,0,0,0,0*6D
$GPGGA,062911.000,5150.4995,N,00033.4749,E,1,09,1.0,63.1,M,47.0,M,,0000*60$GPGSA,A,3,14,22,19,17,32,11,28,24,20,,,,1.7,1.0,1.3*33$GPRMC,062911.000,A,5150.4995,N,00033.4749,E,0.00,,090411,,,A*7E$PTTKT,STAT,0,0,0,0,0*6D
$GPGGA,062912.000,5150.4995,N,00033.4749,E,1,09,1.0,63.1,M,47.0,M,,0000*63$GPGSA,A,3,14,22,19,17,32,11,28,24,20,,,,1.7,1.0,1.3*33$GPGSV,3,1,10,11,83,165,40,24,81,297,21,32,67,203,37,20,39,228,32*73$GPGSV,3,2,10,14,32,057,37,19,29,157,38,28,26,276,40,17,20,313,42*7A$GPGSV,3,3,10,22,07,056,33,09,02,359,40*7C$GPRMC,062912.000,A,5150.4995,N,00033.4749,E,0.00,,090411,,,A*7D$PTTKT,STAT,0,0,0,0,0*6D
$GPGGA,062913.000,5150.4995,N,00033.4749,E,1,09,1.0,63.1,M,47.0,M,,0000*62$GPGSA,A,3,14,22,19,17,32,11,28,24,20,,,,1.7,1.0,1.3*33$GPRMC,062913.000,A,5150.4995,N,00033.4749,E,0.00,,090411,,,A*7C$PTTKT,STAT,0,0,0,0,0*6D
$GPGGA,062914.000,5150.4995,N,00033.4749,E,1,09,1.0,63.1,M,47.0,M,,0000*65$GPGSA,A,3,14,22,19,17,32,11,28,24,20,,,,1.7,1.0,1.3*33$GPRMC,062914.000,A,5150.4995,N,00033.4749,E,0.00,,090411,,,A*7B$GPGGA,062915.000,5150.4995,N,00033.4749,E,1,09,1.0,63.1,M,47.0,M,,0000*64$GPGSA,A,3,14,22,19,17,32,11,28,24,20,,,,1.7,1.0,1.3*33$GPRMC,062915.000,A,5150.4995,N,00033.4749,E,0.00,,090411,,,A*7A$PTTKT,STAT,0,0,0,0,0*6D
$GPGGA,062916.000,5150.4995,N,00033.4749,E,1,09,1.0,63.1,M,47.0,M,,0000*67$GPGSA,A,3,14,22,19,17,32,11,28,24,20,,,,1.7,1.0,1.3*33$GPRMC,062916.000,A,5150.4995,N,00033.4749,E,0.00,,090411,,,A*79$PTTKT,STAT,0,0,0,0,0*6D
$GPGGA,062917.000,5150.4995,N,00033.4749,E,1,09,1.0,63.1,M,47.0,M,,0000*66$GPGSA,A,3,14,22,19,17,32,11,28,24,20,,,,1.7,1.0,1.3*33$GPGSV,3,1,10,11,83,165,40,24,81,297,21,32,67,203,37,20,39,228,33*72$GPGSV,3,2,10,14,32,057,37,19,29,157,37,28,26,276,40,17,20,313,43*74$GPGSV,3,3,10,22,07,056,33,09,02,359,40*7C$GPRMC,062917.000,A,5150.4995,N,00033.4749,E,0.00,,090411,,,A*78$PTTKT,STAT,0,0,0,0,0*6D
$GPGGA,062918.000,5150.4995,N,00033.4749,E,1,09,1.0,63.1,M,47.0,M,,0000*69$GPGSA,A,3,14,22,19,17,32,11,28,24,20,,,,1.7,1.0,1.3*33$GPRMC,062918.000,A,5150.4995,N,00033.4749,E,0.00,,090411,,,A*77$PTTKT,STAT,0,0,0,0,0*6D
$GPGGA,062919.000,5150.4995,N,00033.4749,E,1,09,1.0,63.1,M,47.0,M,,0000*68$GPGSA,A,3,14,22,19,17,32,11,28,24,20,,,,1.7,1.0,1.3*33$GPRMC,062919.000,A,5150.4995,N,00033.4749,E,0.00,,090411,,,A*76$PTTKT,STAT,0,0,0,0,0*6D
$GPGGA,062920.000,5150.4995,N,00033.4749,E,1,09,1.0,63.1,M,47.0,M,,0000*62$GPGSA,A,3,14,22,19,17,32,11,28,24,20,,,,1.7,1.0,1.3*33$GPRMC,062920.000,A,5150.4995,N,00033.4749,E,0.00,,090411,,,A*7C$PTTKT,STAT,0,0,0,0,0*6D
$GPGGA,062921.000,5150.4995,N,00033.4749,E,1,09,1.0,63.1,M,47.0,M,,0000*63$GPGSA,A,3,14,22,19,17,32,11,28,24,20,,,,1.7,1.0,1.3*33$GPRMC,062921.000,A,5150.4995,N,00033.4749,E,0.00,,090411,,,A*7D$PTTKT,STAT,0,0,0,0,0*6D
$GPGGA,062922.000,5150.4995,N,00033.4749,E,1,09,1.0,63.1,M,47.0,M,,0000*60$GPGSA,A,3,14,22,19,17,32,11,28,24,20,,,,1.7,1.0,1.3*33$GPGSV,3,1,10,11,83,165,40,24,81,297,21,32,67,203,38,20,39,228,33*7D$GPGSV,3,2,10,14,32,057,37,19,29,157,37,28,26,276,40,17,20,313,43*74$GPGSV,3,3,10,22,07,056,33,09,02,359,40*7C$GPRMC,062922.000,A,5150.4995,N,00033.4749,E,0.00,,090411,,,A*7E$GPGGA,062923.000,5150.4995,N,00033.4749,E,1,09,1.0,63.1,M,47.0,M,,0000*61$GPGSA,A,3,14,22,19,17,32,11,28,24,20,,,,1.7,1.0,1.3*33$GPRMC,062923.000,A,5150.4995,N,00033.4749,E,0.00,,090411,,,A*7F$PTTKT,STAT,0,0,0,0,0*6D
$GPGGA,062924.000,5150.4995,N,00033.4749,E,1,09,1.0,63.1,M,47.0,M,,0000*66$GPGSA,A,3,14,22,19,17,32,11,28,24,20,,,,1.7,1.0,1.3*33$GPRMC,062924.000,A,5150.4995,N,00033.4749,E,0.00,,090411,,,A*78$PTTKT,STAT,0,0,0,0,0*6D
$GPGGA,062925.000,5150.4995,N,00033.4749,E,1,09,1.0,63.1,M,47.0,M,,0000*67$GPGSA,A,3,14,22,19,17,32,11,28,24,20,,,,1.7,1.0,1.3*33$GPRMC,062925.000,A,5150.4995,N,00033.4749,E,0.00,,090411,,,A*79$PTTKT,STAT,0,0,0,0,0*6D
$GPGGA,062926.000,5150.4995,N,00033.4749,E,1,09,1.0,63.1,M,47.0,M,,0000*64$GPGSA,A,3,14,22,19,17,32,11,28,24,20,,,,1.7,1.0,1.3*33$GPRMC,062926.000,A,5150.4995,N,00033.4749,E,0.00,,090411,,,A*7A$PTTKT,STAT,0,0,0,0,0*6D
$GPGGA,062927.000,5150.4995,N,00033.4749,E,1,09,1.0,63.1,M,47.0,M,,0000*65$GPGSA,A,3,14,22,19,17,32,11,28,24,20,,,,1.7,1.0,1.3*33$GPGSV,3,1,10,11,83,165,40,24,81,297,21,32,67,203,38,20,39,228,33*7D$GPGSV,3,2,10,14,32,057,38,19,29,157,37,28,26,276,40,17,20,313,43*7B$GPGSV,3,3,10,22,07,056,33,09,02,359,40*7C$GPRMC,062927.000,A,5150.4995,N,00033.4749,E,0.00,,090411,,,A*7B$PTTKT,STAT,0,0,0,0,0*6D
$GPGGA,062928.000,5150.4995,N,00033.4749,E,1,09,1.0,63.1,M,47.0,M,,0000*6A$GPGSA,A,3,14,22,19,17,32,11,28,24,20,,,,1.7,1.0,1.3*33$GPRMC,062928.000,A,5150.4995,N,00033.4749,E,0.00,,090411,,,A*74$PTTKT,STAT,0,0,0,0,0*6D
$GPGGA,062929.000,5150.4995,N,00033.4749,E,1,09,1.0,63.1,M,47.0,M,,0000*6B$GPGSA,A,3,14,22,19,17,32,11,28,24,20,,,,1.7,1.0,1.3*33$GPRMC,062929.000,A,5150.4995,N,00033.4749,E,0.00,,090411,,,A*75$PTTKT,STAT,0,0,0,0,0*6D
$GPGGA,062930.000,5150.4995,N,00033.4749,E,1,09,1.0,63.1,M,47.0,M,,0000*63$GPGSA,A,3,14,22,19,17,32,11,28,24,20,,,,1.7,1.0,1.3*33$GPRMC,062930.000,A,5150.4995,N,00033.4749,E,0.00,,090411,,,A*7D$PTTKT,STAT,0,0,0,0,0*6D
$GPGGA,062931.000,5150.4995,N,00033.4749,E,1,09,1.0,63.1,M,47.0,M,,0000*62$GPGSA,A,3,14,22,19,17,32,11,28,24,20,,,,1.7,1.0,1.3*33$GPRMC,062931.000,A,5150.4995,N,00033.4749,E,0.00,,090411,,,A*7C$GPGGA,062932.000,5150.4995,N,00033.4749,E,1,09,1.0,63.1,M,47.0,M,,0000*61$GPGSA,A,3,14,22,19,17,32,11,28,24,20,,,,1.7,1.0,1.3*33$GPGSV,3,1,10,11,83,165,40,24,81,297,21,32,67,203,38,20,39,228,33*7D$GPGSV,3,2,10,14,32,057,38,19,29,157,37,28,26,276,40,17,20,313,43*7B$GPGSV,3,3,10,22,07,056,33,09,02,359,40*7C$GPRMC,062932.000,A,5150.4995,N,00033.4749,E,0.00,,090411,,,A*7F$PTTKT,STAT,0,0,0,0,0*6D
$GPGGA,062933.000,5150.4995,N,00033.4749,E,1,09,1.0,63.1,M,47.0,M,,0000*60$GPGSA,A,3,14,22,19,17,32,11,28,24,20,,,,1.7,1.0,1.3*33$GPRMC,062933.000,A,5150.4995,N,00033.4749,E,0.00,,090411,,,A*7E$PTTKT,STAT,0,0,0,0,0*6D
$GPGGA,062934.000,5150.4995,N,00033.4749,E,1,09,1.0,63.1,M,47.0,M,,0000*67$GPGSA,A,3,14,22,19,17,32,11,28,24,20,,,,1.7,1.0,1.3*33$GPRMC,062934.000,A,5150.4995,N,00033.4749,E,0.00,,090411,,,A*79$PTTKT,STAT,0,0,0,0,0*6D
$GPGGA,062935.000,5150.4995,N,00033.4749,E,1,09,1.0,63.1,M,47.0,M,,0000*66$GPGSA,A,3,14,22,19,17,32,11,28,24,20,,,,1.7,1.0,1.3*33$GPRMC,062935.000,A,5150.4995,N,00033.4749,E,0.00,,090411,,,A*78$PTTKT,STAT,0,0,0,0,0*6D
$GPGGA,062936.000,5150.4995,N,00033.4749,E,1,09,1.0,63.1,M,47.0,M,,0000*65$GPGSA,A,3,14,22,19,17,32,11,28,24,20,,,,1.7,1.0,1.3*33$GPRMC,062936.000,A,5150.4995,N,00033.4749,E,0.00,,090411,,,A*7B$PTTKT,STAT,0,0,0,0,0*6D
$GPGGA,062937.000,5150.4995,N,00033.4749,E,1,09,1.0,63.1,M,47.0,M,,0000*64$GPGSA,A,3,14,22,19,17,32,11,28,24,20,,,,1.7,1.0,1.3*33$GPGSV,3,1,10,11,83,165,40,24,81,297,21,32,67,203,38,20,39,228,33*7D$GPGSV,3,2,10,14,32,057,38,19,29,157,37,28,26,276,40,17,20,313,43*7B$GPGSV,3,3,10,22,07,056,33,09,02,359,40*7C$GPRMC,062937.000,A,5150.4995,N,00033.4749,E,0.00,,090411,,,A*7A$PTTKT,STAT,0,0,0,0,0*6D
$GPGGA,062938.000,5150.4995,N,00033.4749,E,1,09,1.0,63.1,M,47.0,M,,0000*6B$GPGSA,A,3,14,22,19,17,32,11,28,24,20,,,,1.7,1.0,1.3*33$GPRMC,062938.000,A,5150.4995,N,00033.4749,E,0.00,,090411,,,A*75$GPGGA,062939.000,5150.4995,N,00033.4749,E,1,09,1.0,63.1,M,47.0,M,,0000*6A$GPGSA,A,3,14,22,19,17,32,11,28,24,20,,,,1.7,1.0,1.3*33$GPRMC,062939.000,A,5150.4995,N,00033.4749,E,0.00,,090411,,,A*74$PTTKT,STAT,0,0,0,0,0*6D
$GPGGA,062940.000,5150.4995,N,00033.4749,E,1,09,1.0,63.1,M,47.0,M,,0000*64$GPGSA,A,3,14,22,19,17,32,11,28,24,20,,,,1.7,1.0,1.3*33$GPRMC,062940.000,A,5150.4995,N,00033.4749,E,0.00,,090411,,,A*7A$PTTKT,STAT,0,0,0,0,0*6D
$GPGGA,062941.000,5150.4995,N,00033.4749,E,1,09,1.0,63.1,M,47.0,M,,0000*65$GPGSA,A,3,14,22,19,17,32,11,28,24,20,,,,1.7,1.0,1.3*33$GPRMC,062941.000,A,5150.4995,N,00033.4749,E,0.00,,090411,,,A*7B$PTTKT,STAT,0,0,0,0,0*6D
$GPGGA,062942.000,5150.4995,N,00033.4749,E,1,09,1.0,63.1,M,47.0,M,,0000*66$GPGSA,A,3,14,22,19,17,32,11,28,24,20,,,,1.7,1.0,1.3*33$GPGSV,3,1,10,11,83,165,40,24,81,297,21,32,67,203,38,20,39,228,33*7D$GPGSV,3,2,10,14,32,057,38,19,29,157,37,28,26,276,40,17,20,313,43*7B$GPGSV,3,3,10,22,07,056,32,09,02,359,40*7D$GPRMC,062942.000,A,5150.4995,N,00033.4749,E,0.00,,090411,,,A*78$PTTKT,STAT,0,0,0,0,0*6D
$GPGGA,062943.000,5150.4995,N,00033.4749,E,1,09,1.0,63.1,M,47.0,M,,0000*67$GPGSA,A,3,14,22,19,17,32,11,28,24,20,,,,1.7,1.0,1.3*33$GPRMC,062943.000,A,5150.4995,N,00033.4749,E,0.00,,090411,,,A*79$PTTKT,STAT,0,0,0,0,0*6D
$GPGGA,062944.000,5150.4995,N,00033.4749,E,1,09,1.0,63.1,M,47.0,M,,0000*60$GPGSA,A,3,14,22,19,17,32,11,28,24,20,,,,1.7,1.0,1.3*33$GPRMC,062944.000,A,5150.4995,N,00033.4749,E,0.00,,090411,,,A*7E$PTTKT,STAT,0,0,0,0,0*6D
$GPGGA,062945.000,5150.4995,N,00033.4749,E,1,09,1.0,63.1,M,47.0,M,,0000*61$GPGSA,A,3,14,22,19,17,32,11,28,24,20,,,,1.7,1.0,1.3*33$GPRMC,062945.000,A,5150.4995,N,00033.4749,E,0.00,,090411,,,A*7F$GPGGA,062946.000,5150.4995,N,00033.4749,E,1,09,1.0,63.1,M,47.0,M,,0000*62$GPGSA,A,3,14,22,19,17,32,11,28,24,20,,,,1.6,1.0,1.3*32$GPRMC,062946.000,A,5150.4995,N,00033.4749,E,0.00,,090411,,,A*7C$PTTKT,STAT,0,0,0,0,0*6D
$GPGGA,062947.000,5150.4995,N,00033.4749,E,1,09,1.0,63.1,M,47.0,M,,0000*63$GPGSA,A,3,14,22,19,17,32,11,28,24,20,,,,1.6,1.0,1.3*32$GPGSV,3,1,10,11,83,165,40,24,81,297,22,32,67,203,37,20,39,228,32*70$GPGSV,3,2,10,14,32,057,38,19,29,157,37,28,26,276,40,17,20,313,43*7B$GPGSV,3,3,10,22,07,056,32,09,02,359,40*7D$GPRMC,062947.000,A,5150.4995,N,00033.4749,E,0.00,,090411,,,A*7D$PTTKT,STAT,0,0,0,0,0*6D
$GPGGA,062948.000,5150.4995,N,00033.4749,E,1,09,1.0,63.1,M,47.0,M,,0000*6C$GPGSA,A,3,14,22,19,17,32,11,28,24,20,,,,1.6,1.0,1.3*32$GPRMC,062948.000,A,5150.4995,N,00033.4749,E,0.00,,090411,,,A*72$PTTKT,STAT,0,0,0,0,0*6D
$GPGGA,062949.000,5150.4995,N,00033.4749,E,1,09,1.0,63.1,M,47.0,M,,0000*6D$GPGSA,A,3,14,22,19,17,32,11,28,24,20,,,,1.6,1.0,1.3*32$GPRMC,062949.000,A,5150.4995,N,00033.4749,E,0.00,,090411,,,A*73$GPGGA,062950.000,5150.4995,N,00033.4749,E,1,09,1.0,63.1,M,47.0,M,,0000*65$GPGSA,A,3,14,22,19,17,32,11,28,24,20,,,,1.6,1.0,1.3*32$GPRMC,062950.000,A,5150.4995,N,00033.4749,E,0.00,,090411,,,A*7B$PTTKT,STAT,0,0,0,0,0*6D
$GPGGA,062951.000,5150.4995,N,00033.4749,E,1,09,1.0,63.1,M,47.0,M,,0000*64$GPGSA,A,3,14,22,19,17,32,11,28,24,20,,,,1.6,1.0,1.3*32$GPRMC,062951.000,A,5150.4995,N,00033.4749,E,0.00,,090411,,,A*7A$PTTKT,STAT,0,0,0,0,0*6D
$GPGGA,062952.000,5150.4995,N,00033.4749,E,1,09,1.0,63.1,M,47.0,M,,0000*67$GPGSA,A,3,14,22,19,17,32,11,28,24,20,,,,1.6,1.0,1.3*32$GPGSV,3,1,10,11,83,165,40,24,81,297,24,32,67,203,37,20,39,228,31*75$GPGSV,3,2,10,14,32,057,38,19,29,157,37,28,26,276,40,17,20,313,43*7B$GPGSV,3,3,10,22,07,056,32,09,02,359,40*7D$GPRMC,062952.000,A,5150.4995,N,00033.4749,E,0.00,,090411,,,A*79$PTTKT,STAT,0,0,0,0,0*6D
$GPGGA,062953.000,5150.4995,N,00033.4749,E,1,09,1.0,63.1,M,47.0,M,,0000*66$GPGSA,A,3,14,22,19,17,32,11,28,24,20,,,,1.6,1.0,1.3*32$GPRMC,062953.000,A,5150.4995,N,00033.4749,E,0.00,,090411,,,A*78$PTTKT,STAT,0,0,0,0,0*6D
$GPGGA,062954.000,5150.4995,N,00033.4749,E,1,09,1.0,63.1,M,47.0,M,,0000*61$GPGSA,A,3,14,22,19,17,32,11,28,24,20,,,,1.6,1.0,1.3*32$GPRMC,062954.000,A,5150.4995,N,00033.4749,E,0.00,,090411,,,A*7F$PTTKT,STAT,0,0,0,0,0*6D
$GPGGA,062955.000,5150.4995,N,00033.4749,E,1,09,1.0,63.1,M,47.0,M,,0000*60$GPGSA,A,3,14,22,19,17,32,11,28,24,20,,,,1.6,1.0,1.3*32$GPRMC,062955.000,A,5150.4995,N,00033.4749,E,0.00,,090411,,,A*7E$PTTKT,STAT,0,0,0,0,0*6D
$GPGGA,062956.000,5150.4995,N,00033.4749,E,1,09,1.0,63.1,M,47.0,M,,0000*63$GPGSA,A,3,14,22,19,17,32,11,28,24,20,,,,1.6,1.0,1.3*32$GPRMC,062956.000,A,5150.4995,N,00033.4749,E,0.00,,090411,,,A*7D$GPGGA,062957.000,5150.4995,N,00033.4749,E,1,09,1.0,63.1,M,47.0,M,,0000*62$PTTKT,STAT,0,0,0,0,0*6D
$GPGSA,A,3,14,22,19,17,32,11,28,24,20,,,,1.6,1.0,1.3*32$GPGSV,3,1,10,11,83,165,40,24,81,297,24,32,67,203,37,20,39,228,31*75$GPGSV,3,2,10,14,32,057,38,19,29,157,37,28,26,276,40,17,20,313,43*7B$GPGSV,3,3,10,22,07,056,33,09,02,359,40*7C$GPRMC,062957.000,A,5150.4995,N,00033.4749,E,0.00,,090411,,,A*7C$GPGGA,062958.000,5150.4995,N,00033.4749,E,1,09,1.0,63.1,M,47.0,M,,0000*6D$GPGSA,A,3,14,22,19,17,32,11,28,24,20,,,,1.6,1.0,1.3*32$GPRMC,062958.000,A,5150.4995,N,00033.4749,E,0.00,,090411,,,A*73$PTTKT,STAT,0,0,0,0,0*6D
$GPGGA,062959.000,5150.4995,N,00033.4749,E,1,09,1.0,63.1,M,47.0,M,,0000*6C$GPGSA,A,3,14,22,19,17,32,11,28,24,20,,,,1.6,1.0,1.3*32$GPRMC,062959.000,A,5150.4995,N,00033.4749,E,0.00,,090411,,,A*72$PTTKT,STAT,0,0,0,0,0*6D
$GPGGA,063000.000,5150.4995,N,00033.4749,E,1,09,1.0,63.1,M,47.0,M,,0000*68$GPGSA,A,3,14,22,19,17,32,11,28,24,20,,,,1.6,1.0,1.3*32$GPRMC,063000.000,A,5150.4995,N,00033.4749,E,0.00,,090411,,,A*76$PTTKT,STAT,0,0,0,0,0*6D
$GPGGA,063001.000,5150.4995,N,00033.4749,E,1,09,1.0,63.1,M,47.0,M,,0000*69$GPGSA,A,3,14,22,19,17,32,11,28,24,20,,,,1.6,1.0,1.3*32$GPRMC,063001.000,A,5150.4995,N,00033.4749,E,0.00,,090411,,,A*77$PTTKT,STAT,0,0,0,0,0*6D
$GPGGA,063002.000,5150.4995,N,00033.4749,E,1,09,1.0,63.1,M,47.0,M,,0000*6A$GPGSA,A,3,14,22,19,17,32,11,28,24,20,,,,1.6,1.0,1.3*32$GPGSV,3,1,10,11,83,165,40,24,81,297,24,32,67,203,37,20,39,228,30*74$GPGSV,3,2,10,14,32,057,37,19,29,157,37,28,26,276,40,17,20,313,43*74$GPGSV,3,3,10,22,07,056,32,09,02,359,40*7D$GPRMC,063002.000,A,5150.4995,N,00033.4749,E,0.00,,090411,,,A*74$PTTKT,STAT,0,0,0,0,0*6D
$GPGGA,063003.000,5150.4995,N,00033.4749,E,1,09,1.0,63.1,M,47.0,M,,0000*6B$GPGSA,A,3,14,22,19,17,32,11,28,24,20,,,,1.6,1.0,1.3*32$GPRMC,063003.000,A,5150.4995,N,00033.4749,E,0.00,,090411,,,A*75$GPGGA,063004.000,5150.4995,N,00033.4749,E,1,09,1.0,63.1,M,47.0,M,,0000*6C$GPGSA,A,3,14,22,19,17,32,11,28,24,20,,,,1.6,1.0,1.3*32$GPRMC,063004.000,A,5150.4995,N,00033.4749,E,0.00,,090411,,,A*72$PTTKT,STAT,0,0,0,0,0*6D
$GPGGA,063005.000,5150.4995,N,00033.4749,E,1,09,1.0,63.1,M,47.0,M,,0000*6D$GPGSA,A,3,14,22,19,17,32,11,28,24,20,,,,1.6,1.0,1.3*32$GPRMC,063005.000,A,5150.4995,N,00033.4749,E,0.00,,090411,,,A*73$PTTKT,STAT,0,0,0,0,0*6D
$GPGGA,063006.000,5150.4995,N,00033.4749,E,1,09,1.0,63.1,M,47.0,M,,0000*6E$GPGSA,A,3,14,22,19,17,32,11,28,24,20,,,,1.6,1.0,1.3*32$GPRMC,063006.000,A,5150.4995,N,00033.4749,E,0.00,,090411,,,A*70$PTTKT,STAT,0,0,0,0,0*6D
$GPGGA,063007.000,5150.4995,N,00033.4749,E,1,09,1.0,63.1,M,47.0,M,,0000*6F$GPGSA,A,3,14,22,19,17,32,11,28,24,20,,,,1.6,1.0,1.3*32$GPGSV,3,1,10,11,83,165,40,24,81,297,25,32,67,203,37,20,39,228,30*75$GPGSV,3,2,10,14,32,057,37,19,29,157,37,28,26,276,40,17,20,313,43*74$GPGSV,3,3,10,22,07,056,32,09,02,359,40*7D$GPRMC,063007.000,A,5150.4995,N,00033.4749,E,0.00,,090411,,,A*71$PTTKT,STAT,0,0,0,0,0*6D
$GPGGA,063008.000,5150.4995,N,00033.4749,E,1,09,1.0,63.1,M,47.0,M,,0000*60$GPGSA,A,3,14,22,19,17,32,11,28,24,20,,,,1.6,1.0,1.3*32$GPRMC,063008.000,A,5150.4995,N,00033.4749,E,0.00,,090411,,,A*7E$PTTKT,STAT,0,0,0,0,0*6D
$GPGGA,063009.000,5150.4995,N,00033.4749,E,1,09,1.0,63.1,M,47.0,M,,0000*61$GPGSA,A,3,14,22,19,17,32,11,28,24,20,,,,1.6,1.0,1.3*32$GPRMC,063009.000,A,5150.4995,N,00033.4749,E,0.00,,090411,,,A*7F$PTTKT,STAT,0,0,0,0,0*6D
$GPGGA,063010.000,5150.4995,N,00033.4749,E,1,09,1.0,63.1,M,47.0,M,,0000*69$GPGSA,A,3,14,22,19,17,32,11,28,24,20,,,,1.6,1.0,1.3*32$GPRMC,063010.000,A,5150.4995,N,00033.4749,E,0.00,,090411,,,A*77$GPGGA,063011.000,5150.4995,N,00033.4749,E,1,09,1.0,63.1,M,47.0,M,,0000*68$GPGSA,A,3,14,22,19,17,32,11,28,24,20,,,,1.6,1.0,1.3*32$GPRMC,063011.000,A,5150.4995,N,00033.4749,E,0.00,,090411,,,A*76$PTTKT,STAT,0,0,0,0,0*6D
$GPGGA,063012.000,5150.4995,N,00033.4749,E,1,09,1.0,63.1,M,47.0,M,,0000*6B$GPGSA,A,3,14,22,19,17,32,11,28,24,20,,,,1.6,1.0,1.3*32$GPGSV,3,1,10,11,83,165,40,24,81,297,24,32,67,203,37,20,39,228,30*74$GPGSV,3,2,10,14,32,057,37,19,29,157,37,28,26,276,40,17,20,313,43*74$GPGSV,3,3,10,22,07,056,33,09,02,359,40*7C$GPRMC,063012.000,A,5150.4995,N,00033.4749,E,0.00,,090411,,,A*75$PTTKT,STAT,0,0,0,0,0*6D
$GPGGA,063013.000,5150.4995,N,00033.4749,E,1,09,1.0,63.1,M,47.0,M,,0000*6A$GPGSA,A,3,14,22,19,17,32,11,28,24,20,,,,1.6,1.0,1.3*32$GPRMC,063013.000,A,5150.4995,N,00033.4749,E,0.00,,090411,,,A*74$PTTKT,STAT,0,0,0,0,0*6D
$GPGGA,063014.000,5150.4995,N,00033.4749,E,1,09,1.0,63.1,M,47.0,M,,0000*6D$GPGSA,A,3,14,22,19,17,32,11,28,24,20,,,,1.6,1.0,1.3*32$GPRMC,063014.000,A,5150.4995,N,00033.4749,E,0.00,,090411,,,A*73$PTTKT,STAT,0,0,0,0,0*6D
$GPGGA,063015.000,5150.4995,N,00033.4749,E,1,09,1.0,63.1,M,47.0,M,,0000*6C$GPGSA,A,3,14,22,19,17,32,11,28,24,20,,,,1.6,1.0,1.3*32$GPRMC,063015.000,A,5150.4995,N,00033.4749,E,0.00,,090411,,,A*72$PTTKT,STAT,0,0,0,0,0*6D
$GPGGA,063016.000,5150.4995,N,00033.4749,E,1,09,1.0,63.1,M,47.0,M,,0000*6F$GPGSA,A,3,14,22,19,17,32,11,28,24,20,,,,1.6,1.0,1.3*32$GPRMC,063016.000,A,5150.4995,N,00033.4749,E,0.00,,090411,,,A*71$GPGGA,063017.000,5150.4995,N,00033.4749,E,1,09,1.0,63.1,M,47.0,M,,0000*6E$GPGSA,A,3,14,22,19,17,32,11,28,24,20,,,,1.6,1.0,1.3*32$GPGSV,3,1,10,11,82,162,40,24,81,298,25,32,68,203,37,20,40,228,30*7D$GPGSV,3,2,10,14,32,056,38,19,29,157,37,28,26,275,40,17,20,313,43*79$GPGSV,3,3,10,22,07,056,33,09,02,358,40*7D$GPRMC,063017.000,A,5150.4995,N,00033.4749,E,0.00,,090411,,,A*70$PTTKT,STAT,0,0,0,0,0*6D
$GPGGA,063018.000,5150.4995,N,00033.4749,E,1,09,1.0,63.1,M,47.0,M,,0000*61$GPGSA,A,3,14,22,19,17,32,11,28,24,20,,,,1.6,1.0,1.3*32$GPRMC,063018.000,A,5150.4995,N,00033.4749,E,0.00,,090411,,,A*7F$PTTKT,STAT,0,0,0,0,0*6D
$GPGGA,063019.000,5150.4995,N,00033.4749,E,1,09,1.0,63.1,M,47.0,M,,0000*60$GPGSA,A,3,14,22,19,17,32,11,28,24,20,,,,1.6,1.0,1.3*32$GPRMC,063019.000,A,5150.4995,N,00033.4749,E,0.00,,090411,,,A*7E$PTTKT,STAT,0,0,0,0,0*6D
$GPGGA,063020.000,5150.4995,N,00033.4749,E,1,09,1.0,63.1,M,47.0,M,,0000*6A$GPGSA,A,3,14,22,19,17,32,11,28,24,20,,,,1.6,1.0,1.3*32$GPRMC,063020.000,A,5150.4995,N,00033.4749,E,0.00,,090411,,,A*74$PTTKT,STAT,0,0,0,0,0*6D
$GPGGA,063021.000,5150.4995,N,00033.4749,E,1,09,1.0,63.1,M,47.0,M,,0000*6B$GPGSA,A,3,14,22,19,17,32,11,28,24,20,,,,1.6,1.0,1.3*32$GPRMC,063021.000,A,5150.4995,N,00033.4749,E,0.00,,090411,,,A*75$PTTKT,STAT,0,0,0,0,0*6D
$GPGGA,063022.000,5150.4995,N,00033.4749,E,1,09,1.0,63.1,M,47.0,M,,0000*68$GPGSA,A,3,14,22,19,17,32,11,28,24,20,,,,1.6,1.0,1.3*32$GPGSV,3,1,10,11,82,162,40,24,81,298,25,32,68,203,37,20,40,228,30*7D$GPGSV,3,2,10,14,32,056,38,19,29,157,38,28,26,275,40,17,20,313,43*76$GPGSV,3,3,10,22,07,056,33,09,02,358,40*7D$GPRMC,063022.000,A,5150.4995,N,00033.4749,E,0.00,,090411,,,A*76$PTTKT,STAT,0,0,0,0,0*6D
$GPGGA,063023.000,5150.4995,N,00033.4749,E,1,09,1.0,63.1,M,47.0,M,,0000*69$GPGSA,A,3,14,22,19,17,32,11,28,24,20,,,,1.6,1.0,1.3*32$GPRMC,063023.000,A,5150.4995,N,00033.4749,E,0.00,,090411,,,A*77$PTTKT,STAT,0,0,0,0,0*6D
$GPGGA,063024.000,5150.4995,N,00033.4749,E,1,09,1.0,63.1,M,47.0,M,,0000*6E$GPGSA,A,3,14,22,19,17,32,11,28,24,20,,,,1.6,1.0,1.3*32$GPRMC,063024.000,A,5150.4995,N,00033.4749,E,0.00,,090411,,,A*70$PTTKT,STAT,0,0,0,0,0*6D
$GPGGA,063025.000,5150.4995,N,00033.4749,E,1,09,1.0,63.1,M,47.0,M,,0000*6F$GPGSA,A,3,14,22,19,17,32,11,28,24,20,,,,1.6,1.0,1.3*32$GPRMC,063025.000,A,5150.4995,N,00033.4749,E,0.00,,090411,,,A*71$GPGGA,063026.000,5150.4995,N,00033.4749,E,1,09,1.0,63.1,M,47.0,M,,0000*6C$GPGSA,A,3,14,22,19,17,32,11,28,24,20,,,,1.6,1.0,1.3*32$GPRMC,063026.000,A,5150.4995,N,00033.4749,E,0.00,,090411,,,A*72$PTTKT,STAT,0,0,0,0,0*6D
$GPGGA,063027.000,5150.4995,N,00033.4749,E,1,09,1.0,63.1,M,47.0,M,,0000*6D$GPGSA,A,3,14,22,19,17,32,11,28,24,20,,,,1.6,1.0,1.3*32$GPGSV,3,1,10,11,82,162,40,24,81,298,26,32,68,203,36,20,40,228,31*7E$GPGSV,3,2,10,14,32,056,38,19,29,157,37,28,26,275,40,17,20,313,43*79$GPGSV,3,3,10,22,07,056,33,09,02,358,40*7D$GPRMC,063027.000,A,5150.4995,N,00033.4749,E,0.00,,090411,,,A*73$PTTKT,STAT,0,0,0,0,0*6D
$GPGGA,063028.000,5150.4995,N,00033.4749,E,1,09,1.0,63.1,M,47.0,M,,0000*62$GPGSA,A,3,14,22,19,17,32,11,28,24,20,,,,1.6,1.0,1.3*32$GPRMC,063028.000,A,5150.4995,N,00033.4749,E,0.00,,090411,,,A*7C$PTTKT,STAT,0,0,0,0,0*6D
$GPGGA,063029.000,5150.4995,N,00033.4749,E,1,09,1.0,63.1,M,47.0,M,,0000*63$GPGSA,A,3,14,22,19,17,32,11,28,24,20,,,,1.6,1.0,1.3*32$GPRMC,063029.000,A,5150.4995,N,00033.4749,E,0.00,,090411,,,A*7D$PTTKT,STAT,0,0,0,0,0*6D
$GPGGA,063030.000,5150.4995,N,00033.4749,E,1,09,1.0,63.1,M,47.0,M,,0000*6B$GPGSA,A,3,14,22,19,17,32,11,28,24,20,,,,1.6,1.0,1.3*32$GPRMC,063030.000,A,5150.4995,N,00033.4749,E,0.00,,090411,,,A*75$PTTKT,STAT,0,0,0,0,0*6D
$GPGGA,063031.000,5150.4995,N,00033.4749,E,1,09,1.0,63.1,M,47.0,M,,0000*6A$GPGSA,A,3,14,22,19,17,32,11,28,24,20,,,,1.6,1.0,1.3*32$GPRMC,063031.000,A,5150.4995,N,00033.4749,E,0.00,,090411,,,A*74$PTTKT,STAT,0,0,0,0,0*6D
$GPGGA,063032.000,5150.4995,N,00033.4749,E,1,09,1.0,63.1,M,47.0,M,,0000*69$GPGSA,A,3,14,22,19,17,32,11,28,24,20,,,,1.6,1.0,1.3*32$GPGSV,3,1,10,11,82,162,40,24,81,298,26,32,68,203,36,20,40,228,31*7E$GPGSV,3,2,10,14,32,056,38,19,29,157,37,28,26,275,40,17,20,313,43*79$GPGSV,3,3,10,22,07,056,33,09,02,358,40*7D$GPRMC,063032.000,A,5150.4995,N,00033.4749,E,0.00,,090411,,,A*77$PTTKT,STAT,0,0,0,0,0*6D
$GPGGA,063033.000,5150.4995,N,00033.4749,E,1,09,1.0,63.1,M,47.0,M,,0000*68$GPGSA,A,3,14,22,19,17,32,11,28,24,20,,,,1.6,1.0,1.3*32$GPRMC,063033.000,A,5150.4995,N,00033.4749,E,0.00,,090411,,,A*76$PTTKT,STAT,0,0,0,0,0*6D
$GPGGA,063034.000,5150.4995,N,00033.4749,E,1,09,1.0,63.1,M,47.0,M,,0000*6F$GPGSA,A,3,14,22,19,17,32,11,28,24,20,,,,1.6,1.0,1.3*32$GPRMC,063034.000,A,5150.4995,N,00033.4749,E,0.00,,090411,,,A*71$GPGGA,063035.000,5150.4995,N,00033.4749,E,1,09,1.0,63.1,M,47.0,M,,0000*6E$GPGSA,A,3,14,22,19,17,32,11,28,24,20,,,,1.6,1.0,1.3*32$GPRMC,063035.000,A,5150.4995,N,00033.4749,E,0.00,,090411,,,A*70$PTTKT,STAT,0,0,0,0,0*6D
$GPGGA,063036.000,5150.4995,N,00033.4749,E,1,09,1.0,63.1,M,47.0,M,,0000*6D$GPGSA,A,3,14,22,19,17,32,11,28,24,20,,,,1.6,1.0,1.3*32$GPRMC,063036.000,A,5150.4995,N,00033.4749,E,0.00,,090411,,,A*73$PTTKT,STAT,0,0,0,0,0*6D
$GPGGA,063037.000,5150.4995,N,00033.4749,E,1,09,1.0,63.1,M,47.0,M,,0000*6C$GPGSA,A,3,14,22,19,17,32,11,28,24,20,,,,1.6,1.0,1.3*32$GPGSV,3,1,10,11,82,162,40,24,81,298,25,32,68,203,36,20,40,228,31*7D$GPGSV,3,2,10,14,32,056,38,19,29,157,37,28,26,275,40,17,20,313,43*79$GPGSV,3,3,10,22,07,056,33,09,02,358,40*7D$GPRMC,063037.000,A,5150.4995,N,00033.4749,E,0.00,,090411,,,A*72$PTTKT,STAT,0,0,0,0,0*6D
$GPGGA,063038.000,5150.4995,N,00033.4749,E,1,09,1.0,63.1,M,47.0,M,,0000*63$GPGSA,A,3,14,22,19,17,32,11,28,24,20,,,,1.6,1.0,1.3*32$GPRMC,063038.000,A,5150.4995,N,00033.4749,E,0.00,,090411,,,A*7D$PTTKT,STAT,0,0,0,0,0*6D
$GPGGA,063039.000,5150.4995,N,00033.4749,E,1,09,1.0,63.1,M,47.0,M,,0000*62$GPGSA,A,3,14,22,19,17,32,11,28,24,20,,,,1.6,1.0,1.3*32$GPRMC,063039.000,A,5150.4995,N,00033.4749,E,0.00,,090411,,,A*7C$PTTKT,STAT,0,0,0,0,0*6D
$GPGGA,063040.000,5150.4995,N,00033.4749,E,1,09,1.0,63.1,M,47.0,M,,0000*6C$GPGSA,A,3,14,22,19,17,32,11,28,24,20,,,,1.6,1.0,1.3*32$GPRMC,063040.000,A,5150.4995,N,00033.4749,E,0.00,,090411,,,A*72$PTTKT,STAT,0,0,0,0,0*6D
$GPGGA,063041.000,5150.4995,N,00033.4749,E,1,09,1.0,63.1,M,47.0,M,,0000*6D$GPGSA,A,3,14,22,19,17,32,11,28,24,20,,,,1.6,1.0,1.3*32$GPRMC,063041.000,A,5150.4995,N,00033.4749,E,0.00,,090411,,,A*73$PTTKT,STAT,0,0,0,0,0*6D
$GPGGA,063042.000,5150.4995,N,00033.4749,E,1,09,1.0,63.1,M,47.0,M,,0000*6E$GPGSA,A,3,14,22,19,17,32,11,28,24,20,,,,1.6,1.0,1.3*32$GPGSV,3,1,10,11,82,162,40,24,81,298,25,32,68,203,36,20,40,228,31*7D$GPGSV,3,2,10,14,32,056,38,19,29,157,37,28,26,275,39,17,20,313,43*77$GPGSV,3,3,10,22,07,056,27,09,02,358,39*76$GPRMC,063042.000,A,5150.4995,N,00033.4749,E,0.00,,090411,,,A*70$PTTKT,STAT,0,0,0,0,0*6D
$GPGGA,063043.000,5150.4995,N,00033.4749,E,1,09,1.0,63.1,M,47.0,M,,0000*6F$GPGSA,A,3,14,22,19,17,32,11,28,24,20,,,,1.6,1.0,1.3*32$GPRMC,063043.000,A,5150.4995,N,00033.4749,E,0.00,,090411,,,A*71$GPGGA,063044.000,5150.4995,N,00033.4749,E,1,09,1.0,63.1,M,47.0,M,,0000*68$GPGSA,A,3,14,22,19,17,32,11,28,24,20,,,,1.6,1.0,1.3*32$GPRMC,063044.000,A,5150.4995,N,00033.4749,E,0.00,,090411,,,A*76$PTTKT,STAT,0,0,0,0,0*6D
$GPGGA,063045.000,5150.4995,N,00033.4749,E,1,09,1.0,63.1,M,47.0,M,,0000*69$GPGSA,A,3,14,22,19,17,32,11,28,24,20,,,,1.6,1.0,1.3*32$GPRMC,063045.000,A,5150.4995,N,00033.4749,E,0.00,,090411,,,A*77$PTTKT,STAT,0,0,0,0,0*6D
$GPGGA,063046.000,5150.4995,N,00033.4749,E,1,09,1.0,63.1,M,47.0,M,,0000*6A$GPGSA,A,3,14,22,19,17,32,11,28,24,20,,,,1.6,1.0,1.3*32$GPRMC,063046.000,A,5150.4995,N,00033.4749,E,0.00,,090411,,,A*74$PTTKT,STAT,0,0,0,0,0*6D
$GPGGA,063047.000,5150.4995,N,00033.4749,E,1,09,1.0,63.1,M,47.0,M,,0000*6B$GPGSA,A,3,14,22,19,17,32,11,28,24,20,,,,1.6,1.0,1.3*32$GPGSV,3,1,10,11,82,161,40,24,82,298,25,32,68,203,37,20,40,228,32*7F$GPGSV,3,2,10,14,32,056,38,19,29,157,36,28,25,275,39,17,21,312,43*75$GPGSV,3,3,10,22,06,056,27,09,02,358,39*77$GPRMC,063047.000,A,5150.4995,N,00033.4749,E,0.00,,090411,,,A*75$PTTKT,STAT,0,0,0,0,0*6D
$GPGGA,063048.000,5150.4995,N,00033.4749,E,1,09,1.0,63.1,M,47.0,M,,0000*64$GPGSA,A,3,14,22,19,17,32,11,28,24,20,,,,1.6,1.0,1.3*32$GPRMC,063048.000,A,5150.4995,N,00033.4749,E,0.00,,090411,,,A*7A$PTTKT,STAT,0,0,0,0,0*6D
$GPGGA,063049.000,5150.4995,N,00033.4749,E,1,09,1.0,63.1,M,47.0,M,,0000*65$GPGSA,A,3,14,22,19,17,32,11,28,24,20,,,,1.6,1.0,1.3*32$GPRMC,063049.000,A,5150.4995,N,00033.4749,E,0.00,,090411,,,A*7B$PTTKT,STAT,0,0,0,0,0*6D
$GPGGA,063050.000,5150.4995,N,00033.4749,E,1,09,1.0,63.1,M,47.0,M,,0000*6D$GPGSA,A,3,14,22,19,17,32,11,28,24,20,,,,1.6,1.0,1.3*32$GPRMC,063050.000,A,5150.4995,N,00033.4749,E,0.00,,090411,,,A*73$PTTKT,STAT,0,0,0,0,0*6D
$GPGGA,063051.000,5150.4995,N,00033.4749,E,1,09,1.0,63.1,M,47.0,M,,0000*6C$GPGSA,A,3,14,22,19,17,32,11,28,24,20,,,,1.6,1.0,1.3*32$GPRMC,063051.000,A,5150.4995,N,00033.4749,E,0.00,,090411,,,A*72$GPGGA,063052.000,5150.4995,N,00033.4749,E,1,09,1.0,63.1,M,47.0,M,,0000*6F$GPGSA,A,3,14,22,19,17,32,11,28,24,20,,,,1.6,1.0,1.3*32$GPGSV,3,1,10,11,82,161,39,24,82,298,25,32,68,203,37,20,40,228,32*71$GPGSV,3,2,10,14,32,056,38,19,29,157,36,28,25,275,39,17,21,312,43*75$GPGSV,3,3,10,22,06,056,27,09,02,358,39*77$GPRMC,063052.000,A,5150.4995,N,00033.4749,E,0.00,,090411,,,A*71$PTTKT,STAT,0,0,0,0,0*6D
$GPGGA,063053.000,5150.4995,N,00033.4749,E,1,09,1.0,63.1,M,47.0,M,,0000*6E$GPGSA,A,3,14,22,19,17,32,11,28,24,20,,,,1.6,1.0,1.3*32$GPRMC,063053.000,A,5150.4995,N,00033.4749,E,0.00,,090411,,,A*70$PTTKT,STAT,0,0,0,0,0*6D
$GPGGA,063054.000,5150.4995,N,00033.4749,E,1,09,1.0,63.1,M,47.0,M,,0000*69$GPGSA,A,3,14,22,19,17,32,11,28,24,20,,,,1.6,1.0,1.3*32$GPRMC,063054.000,A,5150.4995,N,00033.4749,E,0.00,,090411,,,A*77$PTTKT,STAT,0,0,0,0,0*6D
$GPGGA,063055.000,5150.4995,N,00033.4749,E,1,09,1.0,63.1,M,47.0,M,,0000*68$GPGSA,A,3,14,22,19,17,32,11,28,24,20,,,,1.6,1.0,1.3*32$GPRMC,063055.000,A,5150.4995,N,00033.4749,E,0.00,,090411,,,A*76$PTTKT,STAT,0,0,0,0,0*6D
$GPGGA,063056.000,5150.4995,N,00033.4749,E,1,09,1.0,63.1,M,47.0,M,,0000*6B$GPGSA,A,3,14,22,19,17,32,11,28,24,20,,,,1.6,1.0,1.3*32$GPRMC,063056.000,A,5150.4995,N,00033.4749,E,0.00,,090411,,,A*75$PTTKT,STAT,0,0,0,0,0*6D
$GPGGA,063057.000,5150.4995,N,00033.4749,E,1,09,1.0,63.1,M,47.0,M,,0000*6A$GPGSA,A,3,14,22,19,17,32,11,28,24,20,,,,1.6,1.0,1.3*32$GPGSV,3,1,10,11,82,161,39,24,82,298,25,32,68,203,37,20,40,228,32*71$GPGSV,3,2,10,14,32,056,38,19,29,157,36,28,25,275,39,17,21,312,43*75$GPGSV,3,3,10,22,06,056,27,09,02,358,39*77$GPRMC,063057.000,A,5150.4995,N,00033.4749,E,0.00,,090411,,,A*74$PTTKT,STAT,0,0,0,0,0*6D
$GPGGA,063058.000,5150.4995,N,00033.4749,E,1,09,1.0,63.1,M,47.0,M,,0000*65$GPGSA,A,3,14,22,19,17,32,11,28,24,20,,,,1.6,1.0,1.3*32$GPRMC,063058.000,A,5150.4995,N,00033.4749,E,0.00,,090411,,,A*7B$PTTKT,STAT,0,0,0,0,0*6D
$GPGGA,063059.000,5150.4995,N,00033.4749,E,1,09,1.0,63.1,M,47.0,M,,0000*64$GPGSA,A,3,14,22,19,17,32,11,28,24,20,,,,1.6,1.0,1.3*32$GPRMC,063059.000,A,5150.4995,N,00033.4749,E,0.00,,090411,,,A*7A$PTTKT,STAT,0,0,0,0,0*6D
$GPGGA,063100.000,5150.4995,N,00033.4749,E,1,09,1.0,63.1,M,47.0,M,,0000*69$GPGSA,A,3,14,22,19,17,32,11,28,24,20,,,,1.6,1.0,1.3*32$GPRMC,063100.000,A,5150.4995,N,00033.4749,E,0.00,,090411,,,A*77$PTTKT,STAT,0,0,0,0,0*6D
$GPGGA,063101.000,5150.4995,N,00033.4749,E,1,09,1.0,63.1,M,47.0,M,,0000*68$GPGSA,A,3,14,22,19,17,32,11,28,24,20,,,,1.6,1.0,1.3*32$GPRMC,063101.000,A,5150.4995,N,00033.4749,E,0.00,,090411,,,A*76$GPGGA,063102.000,5150.4995,N,00033.4749,E,1,09,1.0,63.1,M,47.0,M,,0000*6B$GPGSA,A,3,14,22,19,17,32,11,28,24,20,,,,1.6,1.0,1.3*32$GPGSV,3,1,10,11,82,161,39,24,82,298,24,32,68,203,37,20,40,228,32*70$GPGSV,3,2,10,14,32,056,38,19,29,157,35,28,25,275,39,17,21,312,43*76$GPGSV,3,3,10,22,06,056,27,09,02,358,39*77$GPRMC,063102.000,A,5150.4995,N,00033.4749,E,0.00,,090411,,,A*75$PTTKT,STAT,0,0,0,0,0*6D
$GPGGA,063103.000,5150.4995,N,00033.4749,E,1,09,1.0,63.1,M,47.0,M,,0000*6A$GPGSA,A,3,14,22,19,17,32,11,28,24,20,,,,1.6,1.0,1.3*32$GPRMC,063103.000,A,5150.4995,N,00033.4749,E,0.00,,090411,,,A*74$PTTKT,STAT,0,0,0,0,0*6D
$GPGGA,063104.000,5150.4995,N,00033.4749,E,1,09,1.0,63.1,M,47.0,M,,0000*6D$GPGSA,A,3,14,22,19,17,32,11,28,24,20,,,,1.6,1.0,1.3*32$GPRMC,063104.000,A,5150.4995,N,00033.4749,E,0.00,,090411,,,A*73$PTTKT,STAT,0,0,0,0,0*6D
$GPGGA,063105.000,5150.4995,N,00033.4749,E,1,09,1.0,63.1,M,47.0,M,,0000*6C$GPGSA,A,3,14,22,19,17,32,11,28,24,20,,,,1.6,1.0,1.3*32$GPRMC,063105.000,A,5150.4995,N,00033.4749,E,0.00,,090411,,,A*72$PTTKT,STAT,0,0,0,0,0*6D
$GPGGA,063106.000,5150.4995,N,00033.4749,E,1,09,1.0,63.1,M,47.0,M,,0000*6F$GPGSA,A,3,14,22,19,17,32,11,28,24,20,,,,1.6,1.0,1.3*32$GPRMC,063106.000,A,5150.4995,N,00033.4749,E,0.00,,090411,,,A*71$PTTKT,STAT,0,0,0,0,0*6D
$GPGGA,063107.000,5150.4995,N,00033.4749,E,1,09,1.0,63.1,M,47.0,M,,0000*6E$GPGSA,A,3,14,22,19,17,32,11,28,24,20,,,,1.6,1.0,1.3*32$GPGSV,3,1,10,11,82,161,39,24,82,298,23,32,68,203,37,20,40,228,33*76$GPGSV,3,2,10,14,32,056,38,19,29,157,35,28,25,275,39,17,21,312,43*76$GPGSV,3,3,10,22,06,056,27,09,02,358,38*76$GPRMC,063107.000,A,5150.4995,N,00033.4749,E,0.00,,090411,,,A*70$PTTKT,STAT,0,0,0,0,0*6D
$GPGGA,063108.000,5150.4995,N,00033.4749,E,1,09,1.0,63.1,M,47.0,M,,0000*61$GPGSA,A,3,14,22,19,17,32,11,28,24,20,,,,1.6,1.0,1.3*32$GPRMC,063108.000,A,5150.4995,N,00033.4749,E,0.00,,090411,,,A*7F$GPGGA,063109.000,5150.4995,N,00033.4749,E,1,09,1.0,63.1,M,47.0,M,,0000*60$GPGSA,A,3,14,22,19,17,32,11,28,24,20,,,,1.6,1.0,1.3*32$GPRMC,063109.000,A,5150.4995,N,00033.4749,E,0.00,,090411,,,A*7E$PTTKT,STAT,0,0,0,0,0*6D
$GPGGA,063110.000,5150.4995,N,00033.4749,E,1,09,1.0,63.1,M,47.0,M,,0000*68$GPGSA,A,3,14,22,19,17,32,11,28,24,20,,,,1.6,1.0,1.3*32$GPRMC,063110.000,A,5150.4995,N,00033.4749,E,0.00,,090411,,,A*76$PTTKT,STAT,0,0,0,0,0*6D
$GPGGA,063111.000,5150.4995,N,00033.4749,E,1,09,1.0,63.1,M,47.0,M,,0000*69$GPGSA,A,3,14,22,19,17,32,11,28,24,20,,,,1.6,1.0,1.3*32$GPRMC,063111.000,A,5150.4995,N,00033.4749,E,0.00,,090411,,,A*77$PTTKT,STAT,0,0,0,0,0*6D
$GPGGA,063112.000,5150.4995,N,00033.4749,E,1,09,1.0,63.1,M,47.0,M,,0000*6A$GPGSA,A,3,14,22,19,17,32,11,28,24,20,,,,1.6,1.0,1.3*32$GPGSV,3,1,10,11,82,161,39,24,82,298,22,32,68,203,37,20,40,228,33*77$GPGSV,3,2,10,14,32,056,37,19,29,157,34,28,25,275,39,17,21,312,43*78$GPGSV,3,3,10,22,06,056,27,09,02,358,38*76$GPRMC,063112.000,A,5150.4995,N,00033.4749,E,0.00,,090411,,,A*74$PTTKT,STAT,0,0,0,0,0*6D
$GPGGA,063113.000,5150.4995,N,00033.4749,E,1,09,1.0,63.1,M,47.0,M,,0000*6B$GPGSA,A,3,14,22,19,17,32,11,28,24,20,,,,1.6,1.0,1.3*32$GPRMC,063113.000,A,5150.4995,N,00033.4749,E,0.00,,090411,,,A*75$PTTKT,STAT,0,0,0,0,0*6D
$GPGGA,063114.000,5150.4995,N,00033.4749,E,1,09,1.0,63.1,M,47.0,M,,0000*6C$GPGSA,A,3,14,22,19,17,32,11,28,24,20,,,,1.6,1.0,1.3*32$GPRMC,063114.000,A,5150.4995,N,00033.4749,E,0.00,,090411,,,A*72$PTTKT,STAT,0,0,0,0,0*6D
$GPGGA,063115.000,5150.4995,N,00033.4749,E,1,09,1.0,63.1,M,47.0,M,,0000*6D$GPGSA,A,3,14,22,19,17,32,11,28,24,20,,,,1.6,1.0,1.3*32$GPRMC,063115.000,A,5150.4995,N,00033.4749,E,0.00,,090411,,,A*73$GPGGA,063116.000,5150.4995,N,00033.4749,E,1,09,1.0,63.1,M,47.0,M,,0000*6E$GPGSA,A,3,14,22,19,17,32,11,28,24,20,,,,1.6,1.0,1.3*32$GPRMC,063116.000,A,5150.4995,N,00033.4749,E,0.00,,090411,,,A*70$PTTKT,STAT,0,0,0,0,0*6D
$GPGGA,063117.000,5150.4995,N,00033.4749,E,1,09,1.0,63.1,M,47.0,M,,0000*6F$GPGSA,A,3,14,22,19,17,32,11,28,24,20,,,,1.6,1.0,1.3*32$GPGSV,3,1,11,11,82,160,39,24,82,299,21,32,68,202,37,20,40,228,33*74$GPGSV,3,2,11,14,32,056,37,19,28,157,34,28,25,275,39,17,21,312,43*78$GPGSV,3,3,11,22,06,056,27,09,02,358,38,23,00,181,*4E$GPRMC,063117.000,A,5150.4995,N,00033.4749,E,0.00,,090411,,,A*71$PTTKT,STAT,0,0,0,0,0*6D
$GPGGA,063118.000,5150.4995,N,00033.4749,E,1,09,1.0,63.1,M,47.0,M,,0000*60$GPGSA,A,3,14,22,19,17,32,11,28,24,20,,,,1.6,1.0,1.3*32$GPRMC,063118.000,A,5150.4995,N,00033.4749,E,0.00,,090411,,,A*7E$PTTKT,STAT,0,0,0,0,0*6D
$GPGGA,063119.000,5150.4995,N,00033.4749,E,1,09,1.0,63.1,M,47.0,M,,0000*61$GPGSA,A,3,14,22,19,17,32,11,28,24,20,,,,1.6,1.0,1.3*32$GPRMC,063119.000,A,5150.4995,N,00033.4749,E,0.00,,090411,,,A*7F$PTTKT,STAT,0,0,0,0,0*6D
$GPGGA,063120.000,5150.4995,N,00033.4749,E,1,08,1.0,63.1,M,47.0,M,,0000*6A$GPGSA,A,3,14,22,19,17,32,11,28,20,,,,,1.9,1.0,1.5*3D$GPRMC,063120.000,A,5150.4995,N,00033.4749,E,0.00,,090411,,,A*75$PTTKT,STAT,0,0,0,0,0*6D
$GPGGA,063121.000,5150.4995,N,00033.4749,E,1,08,1.0,63.1,M,47.0,M,,0000*6B$GPGSA,A,3,14,22,19,17,32,11,28,20,,,,,1.9,1.0,1.5*3D$GPRMC,063121.000,A,5150.4995,N,00033.4749,E,0.00,,090411,,,A*74$PTTKT,STAT,0,0,0,0,0*6D
$GPGGA,063122.000,5150.4995,N,00033.4749,E,1,08,1.0,63.1,M,47.0,M,,0000*68$GPGSA,A,3,14,22,19,17,32,11,28,20,,,,,1.9,1.0,1.5*3D$GPGSV,3,1,11,11,82,160,39,24,82,299,,32,68,202,38,20,40,228,34*7F$GPGSV,3,2,11,14,32,056,37,19,28,157,33,28,25,275,38,17,21,312,43*7E$GPGSV,3,3,11,22,06,056,27,09,02,358,38,23,00,181,*4E$GPRMC,063122.000,A,5150.4995,N,00033.4749,E,0.00,,090411,,,A*77$PTTKT,STAT,0,0,0,0,0*6D
$GPGGA,063123.000,5150.4995,N,00033.4749,E,1,08,1.0,63.1,M,47.0,M,,0000*69$GPGSA,A,3,14,22,19,17,32,11,28,20,,,,,1.9,1.0,1.5*3D$GPRMC,063123.000,A,5150.4995,N,00033.4749,E,0.00,,090411,,,A*76$PTTKT,STAT,0,0,0,0,0*6D
$GPGGA,063124.000,5150.4995,N,00033.4749,E,1,08,1.0,63.1,M,47.0,M,,0000*6E$GPGSA,A,3,14,22,19,17,32,11,28,20,,,,,1.9,1.0,1.5*3D$GPRMC,063124.000,A,5150.4995,N,00033.4749,E,0.00,,090411,,,A*71$PTTKT,STAT,0,0,0,0,0*6D
$GPGGA,063125.000,5150.4995,N,00033.4749,E,1,08,1.0,63.1,M,47.0,M,,0000*6F$GPGSA,A,3,14,22,19,17,32,11,28,20,,,,,1.9,1.0,1.5*3D$GPRMC,063125.000,A,5150.4995,N,00033.4749,E,0.00,,090411,,,A*70$PTTKT,STAT,0,0,0,0,0*6D
$GPGGA,063126.000,5150.4995,N,00033.4749,E,1,08,1.0,63.1,M,47.0,M,,0000*6C$GPGSA,A,3,14,22,19,17,32,11,28,20,,,,,1.9,1.0,1.5*3D$GPRMC,063126.000,A,5150.4995,N,00033.4749,E,0.00,,090411,,,A*73$GPGGA,063127.000,5150.4995,N,00033.4749,E,1,08,1.0,63.1,M,47.0,M,,0000*6D$GPGSA,A,3,14,22,19,17,32,11,28,20,,,,,1.9,1.0,1.5*3D$GPGSV,3,1,11,11,82,160,39,24,82,299,,32,68,202,38,20,40,228,34*7F$GPGSV,3,2,11,14,32,056,37,19,28,157,33,28,25,275,38,17,21,312,43*7E$GPGSV,3,3,11,22,06,056,27,09,02,358,38,23,00,181,*4E$GPRMC,063127.000,A,5150.4995,N,00033.4749,E,0.00,,090411,,,A*72$PTTKT,STAT,0,0,0,0,0*6D
$GPGGA,063128.000,5150.4995,N,00033.4749,E,1,08,1.0,63.1,M,47.0,M,,0000*62$GPGSA,A,3,14,22,19,17,32,11,28,20,,,,,1.9,1.0,1.5*3D$GPRMC,063128.000,A,5150.4995,N,00033.4749,E,0.00,,090411,,,A*7D$PTTKT,STAT,0,0,0,0,0*6D
$GPGGA,063129.000,5150.4995,N,00033.4749,E,1,08,1.0,63.1,M,47.0,M,,0000*63$GPGSA,A,3,14,22,19,17,32,11,28,20,,,,,1.9,1.0,1.5*3D$GPRMC,063129.000,A,5150.4995,N,00033.4749,E,0.00,,090411,,,A*7C$PTTKT,STAT,0,0,0,0,0*6D
$GPGGA,063130.000,5150.4995,N,00033.4749,E,1,08,1.0,63.1,M,47.0,M,,0000*6B$GPGSA,A,3,14,22,19,17,32,11,28,20,,,,,1.9,1.0,1.5*3D$GPRMC,063130.000,A,5150.4995,N,00033.4749,E,0.00,,090411,,,A*74$PTTKT,STAT,0,0,0,0,0*6D
$GPGGA,063131.000,5150.4995,N,00033.4749,E,1,08,1.0,63.1,M,47.0,M,,0000*6A$GPGSA,A,3,14,22,19,17,32,11,28,20,,,,,1.9,1.0,1.5*3D$GPRMC,063131.000,A,5150.4995,N,00033.4749,E,0.00,,090411,,,A*75$PTTKT,STAT,0,0,0,0,0*6D
$GPGGA,063132.000,5150.4995,N,00033.4749,E,1,08,1.0,63.1,M,47.0,M,,0000*69$GPGSA,A,3,14,22,19,17,32,11,28,20,,,,,1.9,1.0,1.5*3D$GPGSV,3,1,11,11,82,160,40,24,82,299,,32,68,202,38,20,40,228,34*71$GPGSV,3,2,11,14,32,056,36,19,28,157,32,28,25,275,38,17,21,312,43*7E$GPGSV,3,3,11,22,06,056,27,09,02,358,38,23,00,181,*4E$GPRMC,063132.000,A,5150.4995,N,00033.4749,E,0.00,,090411,,,A*76$GPGGA,063133.000,5150.4995,N,00033.4749,E,1,08,1.0,63.1,M,47.0,M,,0000*68$GPGSA,A,3,14,22,19,17,32,11,28,20,,,,,1.9,1.0,1.5*3D$GPRMC,063133.000,A,5150.4995,N,00033.4749,E,0.00,,090411,,,A*77$PTTKT,STAT,0,0,0,0,0*6D
$GPGGA,063134.000,5150.4995,N,00033.4749,E,1,08,1.0,63.1,M,47.0,M,,0000*6F$GPGSA,A,3,14,22,19,17,32,11,28,20,,,,,1.9,1.0,1.5*3D$GPRMC,063134.000,A,5150.4995,N,00033.4749,E,0.00,,090411,,,A*70$PTTKT,STAT,0,0,0,0,0*6D
$GPGGA,063135.000,5150.4995,N,00033.4749,E,1,08,1.0,63.1,M,47.0,M,,0000*6E$GPGSA,A,3,14,22,19,17,32,11,28,20,,,,,1.9,1.0,1.5*3D$GPRMC,063135.000,A,5150.4995,N,00033.4749,E,0.00,,090411,,,A*71$PTTKT,STAT,0,0,0,0,0*6D
$GPGGA,063136.000,5150.4995,N,00033.4749,E,1,08,1.0,63.1,M,47.0,M,,0000*6D$GPGSA,A,3,14,22,19,17,32,11,28,20,,,,,1.9,1.0,1.5*3D$GPRMC,063136.000,A,5150.4995,N,00033.4749,E,0.00,,090411,,,A*72$PTTKT,STAT,0,0,0,0,0*6D
$GPGGA,063137.000,5150.4995,N,00033.4749,E,1,08,1.0,63.1,M,47.0,M,,0000*6C$GPGSA,A,3,14,22,19,17,32,11,28,20,,,,,1.9,1.0,1.5*3D$GPGSV,3,1,11,11,82,160,40,24,82,299,,32,68,202,38,20,40,228,34*71$GPGSV,3,2,11,14,32,056,36,19,28,157,32,28,25,275,38,17,21,312,43*7E$GPGSV,3,3,11,22,06,056,27,09,02,358,38,23,00,181,*4E$GPRMC,063137.000,A,5150.4995,N,00033.4749,E,0.00,,090411,,,A*73$PTTKT,STAT,0,0,0,0,0*6D
$GPGGA,063138.000,5150.4995,N,00033.4749,E,1,08,1.0,63.1,M,47.0,M,,0000*63$GPGSA,A,3,14,22,19,17,32,11,28,20,,,,,1.9,1.0,1.5*3D$GPRMC,063138.000,A,5150.4995,N,00033.4749,E,0.00,,090411,,,A*7C$PTTKT,STAT,0,0,0,0,0*6D
$GPGGA,063139.000,5150.4995,N,00033.4749,E,1,08,1.0,63.1,M,47.0,M,,0000*62$GPGSA,A,3,14,22,19,17,32,11,28,20,,,,,1.8,1.0,1.5*3C$GPRMC,063139.000,A,5150.4995,N,00033.4749,E,0.00,,090411,,,A*7D$PTTKT,STAT,0,0,0,0,0*6D
$GPGGA,063140.000,5150.4995,N,00033.4749,E,1,08,1.0,63.1,M,47.0,M,,0000*6C$GPGSA,A,3,14,22,19,17,32,11,28,20,,,,,1.8,1.0,1.5*3C$GPRMC,063140.000,A,5150.4995,N,00033.4749,E,0.00,,090411,,,A*73$PTTKT,STAT,0,0,0,0,0*6D
$GPGGA,063141.000,5150.4995,N,00033.4749,E,1,08,1.0,63.1,M,47.0,M,,0000*6D$GPGSA,A,3,14,22,19,17,32,11,28,20,,,,,1.8,1.0,1.5*3C$GPRMC,063141.000,A,5150.4995,N,00033.4749,E,0.00,,090411,,,A*72$GPGGA,063142.000,5150.4995,N,00033.4749,E,1,08,1.0,63.1,M,47.0,M,,0000*6E$GPGSA,A,3,14,22,19,17,32,11,28,20,,,,,1.8,1.0,1.5*3C$GPGSV,3,1,11,11,82,160,39,24,82,299,,32,68,202,38,20,40,228,34*7F$GPGSV,3,2,11,14,32,056,36,19,28,157,31,28,25,275,38,17,21,312,43*7D$GPGSV,3,3,11,22,06,056,27,09,02,358,38,23,00,181,*4E$GPRMC,063142.000,A,5150.4995,N,00033.4749,E,0.00,,090411,,,A*71$PTTKT,STAT,0,0,0,0,0*6D
$GPGGA,063143.000,5150.4995,N,00033.4749,E,1,08,1.0,63.1,M,47.0,M,,0000*6F$GPGSA,A,3,14,22,19,17,32,11,28,20,,,,,1.8,1.0,1.5*3C$GPRMC,063143.000,A,5150.4995,N,00033.4749,E,0.00,,090411,,,A*70$PTTKT,STAT,0,0,0,0,0*6D
$GPGGA,063144.000,5150.4995,N,00033.4749,E,1,08,1.0,63.1,M,47.0,M,,0000*68$GPGSA,A,3,14,22,19,17,32,11,28,20,,,,,1.8,1.0,1.5*3C$GPRMC,063144.000,A,5150.4995,N,00033.4749,E,0.00,,090411,,,A*77$PTTKT,STAT,0,0,0,0,0*6D
$GPGGA,063145.000,5150.4995,N,00033.4749,E,1,08,1.0,63.1,M,47.0,M,,0000*69$GPGSA,A,3,14,22,19,17,32,11,28,20,,,,,1.8,1.0,1.5*3C$GPRMC,063145.000,A,5150.4995,N,00033.4749,E,0.00,,090411,,,A*76$PTTKT,STAT,0,0,0,0,0*6D
$GPGGA,063146.000,5150.4995,N,00033.4749,E,1,08,1.0,63.1,M,47.0,M,,0000*6A$GPGSA,A,3,14,22,19,17,32,11,28,20,,,,,1.8,1.0,1.5*3C$GPRMC,063146.000,A,5150.4995,N,00033.4749,E,0.00,,090411,,,A*75$PTTKT,STAT,0,0,0,0,0*6D
$GPGGA,063147.000,5150.4995,N,00033.4749,E,1,08,1.0,63.1,M,47.0,M,,0000*6B$GPGSA,A,3,14,22,19,17,32,11,28,20,,,,,1.8,1.0,1.5*3C$GPGSV,3,1,11,24,82,299,,11,82,159,39,32,69,202,38,20,40,228,34*74$GPGSV,3,2,11,14,32,056,35,19,28,157,31,28,25,274,38,17,21,312,43*7F$GPGSV,3,3,11,22,06,056,27,09,02,358,39,23,00,181,*4F$GPRMC,063147.000,A,5150.4995,N,00033.4749,E,0.00,,090411,,,A*74$PTTKT,STAT,0,0,0,0,0*6D
$GPGGA,063148.000,5150.4995,N,00033.4749,E,1,08,1.0,63.1,M,47.0,M,,0000*64$GPGSA,A,3,14,22,19,17,32,11,28,20,,,,,1.8,1.0,1.5*3C$GPRMC,063148.000,A,5150.4995,N,00033.4749,E,0.00,,090411,,,A*7B$PTTKT,STAT,0,0,0,0,0*6D
$GPGGA,063149.000,5150.4995,N,00033.4749,E,1,08,1.0,63.1,M,47.0,M,,0000*65$GPGSA,A,3,14,22,19,17,32,11,28,20,,,,,1.8,1.0,1.5*3C$GPRMC,063149.000,A,5150.4995,N,00033.4749,E,0.00,,090411,,,A*7A$PTTKT,STAT,0,0,0,0,0*6D
$GPGGA,063150.000,5150.4995,N,00033.4749,E,1,08,1.0,63.1,M,47.0,M,,0000*6D$GPGSA,A,3,14,22,19,17,32,11,28,20,,,,,1.8,1.0,1.5*3C$GPRMC,063150.000,A,5150.4995,N,00033.4749,E,0.00,,090411,,,A*72$GPGGA,063151.000,5150.4995,N,00033.4749,E,1,08,1.0,63.1,M,47.0,M,,0000*6C$GPGSA,A,3,14,22,19,17,32,11,28,20,,,,,1.8,1.0,1.5*3C$GPRMC,063151.000,A,5150.4995,N,00033.4749,E,0.00,,090411,,,A*73$PTTKT,STAT,0,0,0,0,0*6D
$GPGGA,063152.000,5150.4995,N,00033.4749,E,1,08,1.0,63.1,M,47.0,M,,0000*6F$GPGSA,A,3,14,22,19,17,32,11,28,20,,,,,1.8,1.0,1.5*3C$GPGSV,3,1,11,24,82,299,,11,82,159,39,32,69,202,38,20,40,228,34*74$GPGSV,3,2,11,14,32,056,35,19,28,157,31,28,25,274,38,17,21,312,43*7F$GPGSV,3,3,11,22,06,056,26,09,02,358,39,23,00,181,*4E$GPRMC,063152.000,A,5150.4995,N,00033.4749,E,0.00,,090411,,,A*70$PTTKT,STAT,0,0,0,0,0*6D
$GPGGA,063153.000,5150.4995,N,00033.4749,E,1,08,1.0,63.1,M,47.0,M,,0000*6E$GPGSA,A,3,14,22,19,17,32,11,28,20,,,,,1.8,1.0,1.5*3C$GPRMC,063153.000,A,5150.4995,N,00033.4749,E,0.00,,090411,,,A*71$PTTKT,STAT,0,0,0,0,0*6D
$GPGGA,063154.000,5150.4995,N,00033.4749,E,1,08,1.0,63.1,M,47.0,M,,0000*69$GPGSA,A,3,14,22,19,17,32,11,28,20,,,,,1.8,1.0,1.5*3C$GPRMC,063154.000,A,5150.4995,N,00033.4749,E,0.00,,090411,,,A*76$PTTKT,STAT,0,0,0,0,0*6D
$GPGGA,063155.000,5150.4995,N,00033.4749,E,1,08,1.0,63.1,M,47.0,M,,0000*68$GPGSA,A,3,14,22,19,17,32,11,28,20,,,,,1.8,1.0,1.5*3C$GPRMC,063155.000,A,5150.4995,N,00033.4749,E,0.00,,090411,,,A*77$PTTKT,STAT,0,0,0,0,0*6D
$GPGGA,063156.000,5150.4995,N,00033.4749,E,1,08,1.0,63.1,M,47.0,M,,0000*6B$GPGSA,A,3,14,22,19,17,32,11,28,20,,,,,1.8,1.0,1.5*3C$GPRMC,063156.000,A,5150.4995,N,00033.4749,E,0.00,,090411,,,A*74$PTTKT,STAT,0,0,0,0,0*6D
$GPGGA,063157.000,5150.4995,N,00033.4749,E,1,08,1.0,63.1,M,47.0,M,,0000*6A$GPGSA,A,3,14,22,19,17,32,11,28,20,,,,,1.8,1.0,1.5*3C$GPGSV,3,1,11,24,82,299,,11,82,159,39,32,69,202,38,20,40,228,33*73$GPGSV,3,2,11,14,32,056,35,19,28,157,31,28,25,274,38,17,21,312,43*7F$GPGSV,3,3,11,22,06,056,26,09,02,358,38,23,00,181,*4F$GPRMC,063157.000,A,5150.4995,N,00033.4749,E,0.00,,090411,,,A*75$PTTKT,STAT,0,0,0,0,0*6D
$GPGGA,063158.000,5150.4995,N,00033.4749,E,1,08,1.0,63.1,M,47.0,M,,0000*65$GPGSA,A,3,14,22,19,17,32,11,28,20,,,,,1.8,1.0,1.5*3C$GPRMC,063158.000,A,5150.4995,N,00033.4749,E,0.00,,090411,,,A*7A$PTTKT,STAT,0,0,0,0,0*6D
$GPGGA,063159.000,5150.4995,N,00033.4749,E,1,08,1.0,63.1,M,47.0,M,,0000*64$GPGSA,A,3,14,22,19,17,32,11,28,20,,,,,1.8,1.0,1.5*3C$GPRMC,063159.000,A,5150.4995,N,00033.4749,E,0.00,,090411,,,A*7B$GPGGA,063200.000,5150.4995,N,00033.4749,E,1,08,1.0,63.1,M,47.0,M,,0000*6B$GPGSA,A,3,14,22,19,17,32,11,28,20,,,,,1.8,1.0,1.5*3C$GPRMC,063200.000,A,5150.4995,N,00033.4749,E,0.00,,090411,,,A*74$PTTKT,STAT,0,0,0,0,0*6D
$GPGGA,063201.000,5150.4995,N,00033.4749,E,1,09,1.0,63.1,M,47.0,M,,0000*6B$GPGSA,A,3,14,24,22,19,17,32,11,28,20,,,,1.6,1.0,1.3*32$GPRMC,063201.000,A,5150.4995,N,00033.4749,E,0.00,,090411,,,A*75$PTTKT,STAT,0,0,0,0,0*6D
$GPGGA,063202.000,5150.4995,N,00033.4749,E,1,08,1.0,63.1,M,47.0,M,,0000*69$GPGSA,A,3,14,22,19,17,32,11,28,20,,,,,1.8,1.0,1.5*3C$GPGSV,3,1,11,24,82,299,,11,82,159,39,32,69,202,38,20,40,228,33*73$GPGSV,3,2,11,14,32,056,35,19,28,157,31,28,25,274,38,17,21,312,42*7E$GPGSV,3,3,11,22,06,056,25,09,02,358,38,23,00,181,*4C$GPRMC,063202.000,A,5150.4995,N,00033.4749,E,0.00,,090411,,,A*76$PTTKT,STAT,0,0,0,0,0*6D
$GPGGA,063203.000,5150.4995,N,00033.4749,E,1,08,1.0,63.1,M,47.0,M,,0000*68$GPGSA,A,3,14,22,19,17,32,11,28,20,,,,,1.8,1.0,1.5*3C$GPRMC,063203.000,A,5150.4995,N,00033.4749,E,0.00,,090411,,,A*77$PTTKT,STAT,0,0,0,0,0*6D
$GPGGA,063204.000,5150.4995,N,00033.4749,E,1,08,1.0,63.1,M,47.0,M,,0000*6F$GPGSA,A,3,14,22,19,17,32,11,28,20,,,,,1.8,1.0,1.5*3C$GPRMC,063204.000,A,5150.4995,N,00033.4749,E,0.00,,090411,,,A*70$PTTKT,STAT,0,0,0,0,0*6D
$GPGGA,063205.000,5150.4995,N,00033.4749,E,1,09,1.0,63.1,M,47.0,M,,0000*6F$GPGSA,A,3,14,24,22,19,17,32,11,28,20,,,,1.6,1.0,1.3*32$GPRMC,063205.000,A,5150.4995,N,00033.4749,E,0.00,,090411,,,A*71$PTTKT,STAT,0,0,0,0,0*6D
$GPGGA,063206.000,5150.4995,N,00033.4749,E,1,09,1.0,63.1,M,47.0,M,,0000*6C$GPGSA,A,3,14,24,22,19,17,32,11,28,20,,,,1.6,1.0,1.3*32$GPRMC,063206.000,A,5150.4995,N,00033.4749,E,0.00,,090411,,,A*72$PTTKT,STAT,0,0,0,0,0*6D
$GPGGA,063207.000,5150.4995,N,00033.4749,E,1,09,1.0,63.1,M,47.0,M,,0000*6D$GPGSA,A,3,14,24,22,19,17,32,11,28,20,,,,1.6,1.0,1.3*32$GPGSV,3,1,11,24,82,299,21,11,82,159,39,32,69,202,38,20,40,228,32*71$GPGSV,3,2,11,14,32,056,35,19,28,157,31,28,25,274,38,17,21,312,42*7E$GPGSV,3,3,11,22,06,056,25,09,02,358,38,23,00,181,*4C$GPRMC,063207.000,A,5150.4995,N,00033.4749,E,0.00,,090411,,,A*73$GPGGA,063208.000,5150.4995,N,00033.4749,E,1,09,1.0,63.1,M,47.0,M,,0000*62$GPGSA,A,3,14,24,22,19,17,32,11,28,20,,,,1.6,1.0,1.3*32$GPRMC,063208.000,A,5150.4995,N,00033.4749,E,0.00,,090411,,,A*7C$PTTKT,STAT,0,0,0,0,0*6D
$GPGGA,063209.000,5150.4995,N,00033.4749,E,1,09,1.0,63.1,M,47.0,M,,0000*63$GPGSA,A,3,14,24,22,19,17,32,11,28,20,,,,1.6,1.0,1.3*32$GPRMC,063209.000,A,5150.4995,N,00033.4749,E,0.00,,090411,,,A*7D$PTTKT,STAT,0,0,0,0,0*6D
$GPGGA,063210.000,5150.4995,N,00033.4749,E,1,09,1.0,63.1,M,47.0,M,,0000*6B$GPGSA,A,3,14,24,22,19,17,32,11,28,20,,,,1.6,1.0,1.3*32$GPRMC,063210.000,A,5150.4995,N,00033.4749,E,0.00,,090411,,,A*75$PTTKT,STAT,0,0,0,0,0*6D
$GPGGA,063211.000,5150.4995,N,00033.4749,E,1,09,1.0,63.1,M,47.0,M,,0000*6A$GPGSA,A,3,14,24,22,19,17,32,11,28,20,,,,1.6,1.0,1.3*32$GPRMC,063211.000,A,5150.4995,N,00033.4749,E,0.00,,090411,,,A*74$PTTKT,STAT,0,0,0,0,0*6D
$GPGGA,063212.000,5150.4995,N,00033.4749,E,1,09,1.0,63.1,M,47.0,M,,0000*69$GPGSA,A,3,14,24,22,19,17,32,11,28,20,,,,1.6,1.0,1.3*32$GPGSV,3,1,11,24,82,299,21,11,82,159,39,32,69,202,38,20,40,228,32*71$GPGSV,3,2,11,14,32,056,35,19,28,157,31,28,25,274,38,17,21,312,42*7E$GPGSV,3,3,11,22,06,056,25,09,02,358,38,23,00,181,*4C$GPRMC,063212.000,A,5150.4995,N,00033.4749,E,0.00,,090411,,,A*77$PTTKT,STAT,0,0,0,0,0*6D
$GPGGA,063213.000,5150.4995,N,00033.4749,E,1,09,1.0,63.1,M,47.0,M,,0000*68$GPGSA,A,3,14,24,22,19,17,32,11,28,20,,,,1.6,1.0,1.3*32$GPRMC,063213.000,A,5150.4995,N,00033.4749,E,0.00,,090411,,,A*76$PTTKT,STAT,0,0,0,0,0*6D
$GPGGA,063214.000,5150.4995,N,00033.4749,E,1,09,1.0,63.1,M,47.0,M,,0000*6F$GPGSA,A,3,14,24,22,19,17,32,11,28,20,,,,1.6,1.0,1.3*32$GPRMC,063214.000,A,5150.4995,N,00033.4749,E,0.00,,090411,,,A*71$GPGGA,063215.000,5150.4995,N,00033.4749,E,1,09,1.0,63.1,M,47.0,M,,0000*6E$GPGSA,A,3,14,24,22,19,17,32,11,28,20,,,,1.6,1.0,1.3*32$GPRMC,063215.000,A,5150.4995,N,00033.4749,E,0.00,,090411,,,A*70$PTTKT,STAT,0,0,0,0,0*6D
$GPGGA,063216.000,5150.4995,N,00033.4749,E,1,09,1.0,63.1,M,47.0,M,,0000*6D$GPGSA,A,3,14,24,22,19,17,32,11,28,20,,,,1.6,1.0,1.3*32$GPRMC,063216.000,A,5150.4995,N,00033.4749,E,0.00,,090411,,,A*73$PTTKT,STAT,0,0,0,0,0*6D
$GPGGA,063217.000,5150.4995,N,00033.4749,E,1,09,1.0,63.1,M,47.0,M,,0000*6C$GPGSA,A,3,14,24,22,19,17,32,11,28,20,,,,1.6,1.0,1.3*32$GPGSV,3,1,11,24,82,300,20,11,81,158,39,32,69,202,38,20,41,228,31*71$GPGSV,3,2,11,14,32,055,35,19,28,157,31,28,25,274,39,17,21,312,42*7C$GPGSV,3,3,11,22,06,056,25,09,02,358,37,23,00,181,*43$GPRMC,063217.000,A,5150.4995,N,00033.4749,E,0.00,,090411,,,A*72$PTTKT,STAT,0,0,0,0,0*6D
$GPGGA,063218.000,5150.4995,N,00033.4749,E,1,09,1.0,63.1,M,47.0,M,,0000*63$GPGSA,A,3,14,24,22,19,17,32,11,28,20,,,,1.6,1.0,1.3*32$GPRMC,063218.000,A,5150.4995,N,00033.4749,E,0.00,,090411,,,A*7D$PTTKT,STAT,0,0,0,0,0*6D
$GPGGA,063219.000,5150.4995,N,00033.4749,E,1,09,1.0,63.1,M,47.0,M,,0000*62$GPGSA,A,3,14,24,22,19,17,32,11,28,20,,,,1.6,1.0,1.3*32$GPRMC,063219.000,A,5150.4995,N,00033.4749,E,0.00,,090411,,,A*7C$PTTKT,STAT,0,0,0,0,0*6D
$GPGGA,063220.000,5150.4995,N,00033.4749,E,1,09,1.0,63.1,M,47.0,M,,0000*68$GPGSA,A,3,14,24,22,19,17,32,11,28,20,,,,1.6,1.0,1.3*32$GPRMC,063220.000,A,5150.4995,N,00033.4749,E,0.00,,090411,,,A*76$PTTKT,STAT,0,0,0,0,0*6D
$GPGGA,063221.000,5150.4995,N,00033.4749,E,1,09,1.0,63.1,M,47.0,M,,0000*69$GPGSA,A,3,14,24,22,19,17,32,11,28,20,,,,1.6,1.0,1.3*32$GPRMC,063221.000,A,5150.4995,N,00033.4749,E,0.00,,090411,,,A*77$PTTKT,STAT,0,0,0,0,0*6D
